Fuel Type Code,Station Name,Street Address,Intersection Directions,City,State,ZIP,Plus4,Station Phone,Status Code,Expected Date,Groups With Access Code,Access Days Time,Cards Accepted,BD Blends,NG Fill Type Code,NG PSI,EV Level1 EVSE Num,EV Level2 EVSE Num,EV DC Fast Count,EV Other Info,EV Network,EV Network Web,Geocode Status,Latitude,Longitude,Date Last Confirmed,ID,Updated At,Owner Type Code,Federal Agency ID,Federal Agency Name,Open Date,Hydrogen Status Link,NG Vehicle Class,LPG Primary,E85 Blender Pump,EV Connector Types,Country,Intersection Directions (French),Access Days Time (French),BD Blends (French),Groups With Access Code (French),Hydrogen Is Retail,Access Code,Access Detail Code,Federal Agency Code,Facility Type,CNG Dispenser Num,CNG On-Site Renewable Source,CNG Total Compression Capacity,CNG Storage Capacity,LNG On-Site Renewable Source,E85 Other Ethanol Blends,EV Pricing,EV Pricing (French),LPG Nozzle Types,Hydrogen Pressures,Hydrogen Standards,CNG Fill Type Code,CNG PSI,CNG Vehicle Class,LNG Vehicle Class,EV On-Site Renewable Source,Restricted Access,RD Blends,RD Blends (French),RD Blended with Biodiesel,RD Maximum Biodiesel Level,NPS Unit Name,CNG Station Sells Renewable Natural Gas,LNG Station Sells Renewable Natural Gas,Maximum Vehicle Class,EV Workplace Charging
CNG,"Memphis Light, Gas and Water - North Center",1130 Tupelo St,,Memphis,TN,38108,,901-320-1062  901-320-1473,E,,Public - Credit card at all times,24 hours daily,D FuelMan M V Voyager Wright_Exp,,Q,3600,,,,,,,200-8,35.166531,-89.972823,2023-02-13,1215,2023-08-24 03:13:16 UTC,LG,,,1995-09-15,,HD,,,,US,,,,Public - Carte de crédit en tout temps,,public,CREDIT_CARD_ALWAYS,,UTILITY,2,,185,,,,,,,,,Q,3600,HD,,,false,,,,,,,,HD,
LPG,U-Haul,1420 NE Memorial Blvd,At Clark,Murfreesboro,TN,37129,,615-896-9018,E,,Public,"7am-7pm M-Th and Sat, 7am-8pm F, 9am-5pm Sun",A Cash D M V,,,,,,,,,,200-9,35.862106,-86.389596,2023-02-13,19668,2023-02-14 15:54:11 UTC,P,,,2000-11-01,,,true,,,US,,,,Public,,public,,,RENTAL_CAR_RETURN,,,,,,,,,"[""ACME"", ""QUICK_CONNECT""]",,,,,,,,false,,,,,,,,HD,
LPG,U-Haul,14535 Lebanon Rd,East of Andrew Jackson Pkwy,Old Hickory,TN,37138,,615-754-6246,E,,Public,"7am-7pm M-Th and Sat, 7am-8pm F, 9am-5pm Sun",A Cash D M V,,,,,,,,,,GPS,36.219753,-86.568904,2023-02-13,19669,2023-02-14 15:54:11 UTC,P,,,2000-11-01,,,true,,,US,,,,Public,,public,,,RENTAL_CAR_RETURN,,,,,,,,,"[""ACME"", ""QUICK_CONNECT""]",,,,,,,,false,,,,,,,,HD,
LPG,U-Haul,1816 8th Ave S,1 block west of I-65 at Wedgewood Ave,Nashville,TN,37203,,615-383-6455,E,,Public,"7am-7pm M-Th and Sat, 7am-8pm F, 9am-5pm Sun",A Cash D M V,,,,,,,,,,200-9,36.134991,-86.778633,2023-02-13,19670,2023-02-14 15:54:11 UTC,P,,,2000-11-01,,,true,,,US,,,,Public,,public,,,RENTAL_CAR_RETURN,,,,,,,,,"[""ACME"", ""QUICK_CONNECT""]",,,,,,,,false,,,,,,,,HD,
LPG,U-Haul,3741 Annex Ave,Near Hillwood Plaza,Nashville,TN,37209,,615-356-2550,E,,Public,"7am-7pm M-Th and Sat, 7am-8pm F, 9am-5pm Sun",A Cash D M V,,,,,,,,,,200-9,36.140596,-86.884048,2023-02-13,19671,2023-02-14 15:54:11 UTC,P,,,2000-11-01,,,true,,,US,,,,Public,,public,,,RENTAL_CAR_RETURN,,,,,,,,,"[""ACME"", ""QUICK_CONNECT""]",,,,,,,,false,,,,,,,,HD,
LPG,U-Haul,2022 Broad St,At 20th,Chattanooga,TN,37408,,423-756-0157,E,,Public,"7am-7pm M-Th and Sat, 7am-8pm F, 9am-5pm Sun",A Cash Checks D M V,,,,,,,,,,200-9,35.032674,-85.313368,2023-02-13,19678,2023-02-14 15:54:11 UTC,P,,,2000-11-01,,,true,,,US,,,,Public,,public,,,RENTAL_CAR_RETURN,,,,,,,,,"[""QUICK_CONNECT"", ""ACME""]",,,,,,,,false,,,,,,,,,
LPG,U-Haul,5816 Ringgold Rd,West of I-75 S,East Ridge,TN,37412,,423-894-9323,E,,Public,"7am-7pm M-Th and Sat, 7am-8pm F, 9am-5pm Sun",A Cash D M V,,,,,,,,,,GPS,34.990254,-85.21915,2023-02-13,19679,2023-02-14 15:54:11 UTC,P,,,2000-11-01,,,true,,,US,,,,Public,,public,,,RENTAL_CAR_RETURN,,,,,,,,,"[""ACME"", ""QUICK_CONNECT""]",,,,,,,,false,,,,,,,,HD,
LPG,U-Haul,2975 W State St,At Highway 126,Bristol,TN,37620,,423-968-1739,E,,Public,"7am-7pm M-Th and Sat, 7am-8pm F, 9am-5pm Sun",A Cash D M V,,,,,,,,,,200-9,36.59288,-82.220955,2023-02-13,19682,2023-02-14 15:54:11 UTC,P,,,2000-11-01,,,true,,,US,,,,Public,,public,,,RENTAL_CAR_RETURN,,,,,,,,,"[""ACME"", ""QUICK_CONNECT""]",,,,,,,,false,,,,,,,,HD,
LPG,U-Haul,7209 Kingston Pike SW,East of West Town Mall,Knoxville,TN,37919,,865-584-8608,E,,Public,"7am-7pm M-Th and Sat, 7am-8pm F, 9am-5pm Sun",A Cash D M V,,,,,,,,,,200-9,35.931011,-84.02858,2023-02-13,19685,2023-02-14 15:54:11 UTC,P,,,2000-11-01,,,true,,,US,,,,Public,,public,,,RENTAL_CAR_RETURN,,,,,,,,,"[""ACME"", ""QUICK_CONNECT""]",,,,,,,,false,,,,,,,,HD,
LPG,U-Haul,7200 Chapman Hwy,North of John Sevier Hwy,Knoxville,TN,37920,,865-573-5582,E,,Public,"7am-7pm M-Th and Sat, 7am-8pm F, 9am-5pm Sun",A Cash D M V,,,,,,,,,,200-9,35.910423,-83.851997,2023-02-13,19686,2023-02-14 15:54:11 UTC,P,,,2000-11-01,,,true,,,US,,,,Public,,public,,,RENTAL_CAR_RETURN,,,,,,,,,"[""ACME"", ""QUICK_CONNECT""]",,,,,,,,false,,,,,,,,HD,
LPG,U-Haul,3020 Lamar Ave,North of I-240,Memphis,TN,38114,,901-743-1993,E,,Public,"7am-7pm M-Th and Sat, 7am-8pm F, 9am-5pm Sun",A Cash D M V,,,,,,,,,,200-9,35.086247,-89.961313,2023-02-13,19693,2023-02-14 15:54:11 UTC,P,,,2000-11-01,,,true,,,US,,,,Public,,public,,,RENTAL_CAR_RETURN,,,,,,,,,"[""QUICK_CONNECT"", ""ACME""]",,,,,,,,false,,,,,,,,,
LPG,U-Haul,3561 Mendenhall Rd,"South of I-240, at Winchester",Memphis,TN,38115,,901-366-2624,E,,Public,"7am-7pm M-Th and Sat, 7am-8pm F, 9am-5pm Sun",A Cash D M V,,,,,,,,,,200-9,35.051569,-89.886731,2023-02-13,19694,2023-02-14 15:54:11 UTC,P,,,2000-11-01,,,true,,,US,,,,Public,,public,,,RENTAL_CAR_RETURN,,,,,,,,,"[""ACME"", ""QUICK_CONNECT""]",,,,,,,,false,,,,,,,,HD,
LPG,U-Haul,173 Airways Blvd,Between Hollywood and Lambuth,Jackson,TN,38301,,731-424-7360,E,,Public,"7am-7pm M-Th and Sat, 7am-8pm F, 9am-5pm Sun",A Cash D M V,,,,,,,,,,200-9,35.616308,-88.827415,2023-02-13,19701,2023-02-14 15:54:11 UTC,P,,,2000-11-01,,,true,,,US,,,,Public,,public,,,RENTAL_CAR_RETURN,,,,,,,,,"[""ACME"", ""QUICK_CONNECT""]",,,,,,,,false,,,,,,,,HD,
E85,Casey's General Store,206 Walker Springs Rd,"I-40/I-75, Exit 379",Knoxville,TN,37923,,865-694-8160,E,,Public,24 hours daily,A Cash D Debit M V Voyager Wright_Exp,,,,,,,,,,GPS,35.92494707543039,-84.06584446130752,2023-07-11,31865,2023-07-11 18:28:56 UTC,P,,,2007-06-15,,,,false,,US,,,,Public,,public,,,CONVENIENCE_STORE,,,,,,,,,,,,,,,,,false,,,,,,,,MD,
E85,Twice Daily #6603,150 Long Hollow Pike,"I-65, Exit 97",Goodlettsville,TN,37072,,615-851-1877,E,,Public,24 hours daily,A Cash D M V Voyager Wright_Exp,,,,,,,,,,200-9,36.323459,-86.708259,2023-08-10,31976,2023-08-10 20:17:29 UTC,P,,,2007-06-15,,,,false,,US,,,,Public,,public,,,CONVENIENCE_STORE,,,,,,,,,,,,,,,,,false,,,,,,,,MD,
E85,Twice Daily #6135,911 S Hartmann Dr,"I-40, Exit 236",Lebanon,TN,37090,,615-453-5409,E,,Public,24 hours daily,A Cash D M V Voyager Wright_Exp,,,,,,,,,,200-8,36.188573,-86.326256,2022-08-10,32105,2023-09-01 21:54:55 UTC,P,,,2007-04-15,,,,false,,US,,,,Public,,public,,,CONVENIENCE_STORE,,,,,,,,,,,,,,,,,false,,,,,,,,,
E85,Speedway #7138,8281 Tridon Dr,"I-24, Exit 70",Smyrna,TN,37167,,615-355-7073,E,,Public,24 hours daily,A Cash D M V Voyager Wright_Exp,,,,,,,,,,200-9,35.935309,-86.529881,2023-08-10,32521,2023-08-10 16:58:49 UTC,P,,,2019-06-15,,,,false,,US,,,,Public,,public,,,CONVENIENCE_STORE,,,,,,,,,,,,,,,,,false,,,,,,,,MD,
E85,Casey's General Store,9550 Northshore Dr,"I-140, Exit 5",Knoxville,TN,37922,,865-692-9751,E,,Public,24 hours daily,A Cash D Debit M V Voyager Wright_Exp,,,,,,,,,,200-9,35.859863,-84.069847,2023-07-11,32752,2023-07-11 18:28:56 UTC,P,,,2007-11-01,,,,false,,US,,,,Public,,public,,,CONVENIENCE_STORE,,,,,,,,,,,,,,,,,false,,,,,,,,MD,
E85,Twice Daily #8863,4040 Hillsboro Pike,"I-440, Exit 3",Nashville,TN,37215,,615-298-5745,E,,Public,24 hours daily,A Cash D FleetOne M V,,,,,,,,,,200-9,36.102931,-86.815943,2023-09-14,33359,2023-09-14 14:01:49 UTC,P,,,2008-06-01,,,,false,,US,,,,Public,,public,,,CONVENIENCE_STORE,,,,,,,,,,,,,,,,,false,,,,,,,,MD,
E85,Exxon - Zoomerz #67,935 N Kentucky St,I-40 exit 352,Kingston,TN,37763,,865-376-5004,E,,Public,24 hours daily,A Cash D M V Voyager Wright_Exp,,,,,,,,,,200-9,35.87974,-84.508911,2023-09-14,35025,2023-09-14 14:01:49 UTC,P,,,2009-07-15,,,,false,,US,,,,Public,,public,,,CONVENIENCE_STORE,,,,,,,,,,,,,,,,,false,,,,,,,,MD,
E85,Pilot Travel Center #114,2449 Genesis Rd,"I-40, Exit 172",Crossville,TN,38571,,931-787-1901,E,,Public,24 hours daily,A D M V Voyager Wright_Exp,,,,,,,,,,200-9,35.9859,-85.012878,2023-09-14,35548,2023-09-14 14:01:49 UTC,P,,,2010-03-01,,,,false,,US,,,,Public,,public,,,TRAVEL_CENTER,,,,,,,,,,,,,,,,,false,,,,,,,,MD,
E85,Thorntons #610,1049 Long Hollow Pike,,Gallatin,TN,37066,,615-230-8133,E,,Public,24 hours daily,A Cash D M V Voyager Wright_Exp,,,,,,,,,,200-9,36.386594,-86.479936,2023-09-14,35550,2023-09-14 14:01:49 UTC,P,,,2010-03-01,,,,false,,US,,,,Public,,public,,,CONVENIENCE_STORE,,,,,,,,,,,,,,,,,false,,,,,,,,LD,
E85,Pilot Travel Center #219,7210 Strawberry Plains Pike,"I-40, Exit 398",Knoxville,TN,37914,,865-544-1067,E,,Public,24 hours daily,A Cash D M V Voyager Wright_Exp,,,,,,,,,,200-9,35.998219,-83.778114,2023-09-14,35553,2023-09-14 14:01:49 UTC,P,,,2010-03-01,,,,true,,US,,,,Public,,public,,,TRAVEL_CENTER,,,,,,"[""E15""]",,,,,,,,,,,false,,,,,,,,MD,
E85,Kroger #594,4900 Port Royal Rd,,Spring Hill,TN,37174,,931-560-2141,E,,Public,6am-10pm daily,A Cash Checks D M V Wright_Exp,,,,,,,,,,200-8,35.7414,-86.89216,2023-09-14,35554,2023-09-14 14:01:49 UTC,P,,,2008-12-01,,,,false,,US,,,,Public,,public,,,GROCERY,,,,,,,,,,,,,,,,,false,,,,,,,,MD,
E85,Thorntons #601,768 E Main St,,Hendersonville,TN,37075,,615-264-0106,E,,Public,24 hours daily,A Cash Checks D M V Voyager Wright_Exp,,,,,,,,,,200-9,36.327259,-86.562805,2023-09-14,37557,2023-09-14 14:01:49 UTC,P,,,2010-12-31,,,,false,,US,,,,Public,,public,,,CONVENIENCE_STORE,,,,,,,,,,,,,,,,,false,,,,,,,,MD,
E85,Thorntons #604,317 Myatt Dr,,Madison,TN,37115,,615-860-0443,E,,Public,24 hours daily,A Cash Checks D M V Voyager Wright_Exp,,,,,,,,,,200-9,36.271258,-86.689078,2023-09-14,37559,2023-09-14 14:01:49 UTC,P,,,2010-12-31,,,,false,,US,,,,Public,,public,,,CONVENIENCE_STORE,,,,,,,,,,,,,,,,,false,,,,,,,,LD,
E85,Thorntons #605,927 Old Fort Pkwy,,Murfreesboro,TN,37129,,615-893-5109,E,,Public,24 hours daily,A Cash Checks D M V Voyager Wright_Exp,,,,,,,,,,200-9,35.846168,-86.407244,2023-09-14,37560,2023-09-14 14:01:49 UTC,P,,,2010-12-31,,,,false,,US,,,,Public,,public,,,CONVENIENCE_STORE,,,,,,,,,,,,,,,,,false,,,,,,,,LD,
E85,Thorntons #608,7102 Charlotte Pike,"I-40, Exit 201",Nashville,TN,37209,,615-354-8744,E,,Public,24 hours daily,A Cash Checks D M V Voyager Wright_Exp,,,,,,,,,,200-9,36.128087,-86.908172,2023-09-14,37561,2023-09-14 14:01:49 UTC,P,,,2010-12-31,,,,false,,US,,,,Public,,public,,,CONVENIENCE_STORE,,,,,,,,,,,,,,,,,false,,,,,,,,LD,
E85,Thorntons #602,714 Stewarts Ferry Pike,"I-40, Exit 219",Nashville,TN,37214,,615-883-2250,E,,Public,24 hours daily,A Cash Checks D M V Voyager Wright_Exp,,,,,,,,,,200-9,36.152713,-86.625704,2023-09-14,37633,2023-09-14 14:01:49 UTC,P,,,2010-12-10,,,,false,,US,,,,Public,,public,,,CONVENIENCE_STORE,,,,,,,,,,,,,,,,,false,,,,,,,,LD,
ELEC,Oak Ridge Nissan,101 S Illinois Ave,,Oak Ridge,TN,37830,,865-482-5489,E,,Public - Call ahead,Dealership business hours,,,,,,1,,,Non-Networked,,200-9,36.010279,-84.268049,2020-06-09,39705,2023-02-15 22:45:41 UTC,P,,,2011-03-15,,,,,J1772,US,,,,Public - Appeler à l'avance,,public,CALL,,CAR_DEALER,,,,,,,Free,,,,,,,,,,false,,,,,,,,,false
ELEC,Newton Nissan South,2801 Highway 231 N,,Shelbyville,TN,37160,,931-684-6811,E,,Public - Call ahead,Dealership business hours,,,,,,1,,,Non-Networked,,200-9,35.558371,-86.448276,2020-06-09,39707,2021-03-11 23:22:17 UTC,P,,,2011-03-15,,,,,J1772,US,,,,Public - Appeler à l'avance,,public,CALL,,CAR_DEALER,,,,,,,Free,,,,,,,,,,false,,,,,,,,,false
ELEC,Mountain View Nissan,2100 S Market St,,Chattanooga,TN,37408,,423-756-1500,E,,Public - Call ahead,Dealership business hours,,,,,,1,1,,Non-Networked,,200-9,35.030251,-85.308376,2020-06-09,39802,2023-02-15 22:45:41 UTC,P,,,2011-03-15,,,,,CHADEMO J1772,US,,,,Public - Appeler à l'avance,,public,CALL,,CAR_DEALER,,,,,,,Free,,,,,,,,,,false,,,,,,,,,false
ELEC,Harold Mathews Nissan,185 Highway 76,,Clarksville,TN,37043,,931-552-7555,E,,Public - Call ahead,Dealership business hours,,,,,,1,1,,Non-Networked,,200-9,36.513006,-87.268667,2022-02-10,39803,2022-02-10 19:42:29 UTC,P,,,2011-03-15,,,,,CHADEMO J1772,US,,,,Public - Appeler à l'avance,,public,CALL,,CAR_DEALER,,,,,,,Free,,,,,,,,,,false,,,,,,,,LD,false
ELEC,Cookeville Nissan,501 Neal St,,Cookeville,TN,38501,,931-528-7715,E,,Public - Call ahead,Dealership business hours,,,,,,1,,,Non-Networked,,200-9,36.137109,-85.496453,2020-06-09,39805,2023-02-15 22:45:41 UTC,P,,,2011-03-15,,,,,J1772,US,,,,Public - Appeler à l'avance,,public,CALL,,CAR_DEALER,,,,,,,Free,,,,,,,,,,false,,,,,,,,,false
ELEC,Victory Nissan West,2219 Highway 46 S,,Dickson,TN,37055,,615-446-7070,E,,Public - Call ahead,Dealership business hours,,,,,,1,,,Non-Networked,,200-9,36.023934,-87.340223,2020-06-09,39806,2023-02-15 22:45:41 UTC,P,,,2011-03-15,,,,,J1772,US,,,,Public - Appeler à l'avance,,public,CALL,,CAR_DEALER,,,,,,,Free,,,,,,,,,,false,,,,,,,,,false
ELEC,Rick Hill Nissan,2700 Parr Ave,,Dyersburg,TN,38024,,731-285-6294,E,,Public - Call ahead,Dealership business hours,,,,,,1,,,Non-Networked,,200-9,36.063277,-89.379485,2020-06-09,39807,2021-03-11 23:22:17 UTC,P,,,2011-03-15,,,,,J1772,US,,,,Public - Appeler à l'avance,,public,CALL,,CAR_DEALER,,,,,,,Free,,,,,,,,,,false,,,,,,,,,false
ELEC,Nissan of Cool Springs,212 Comtide Ct,,Franklin,TN,37067,,615-790-2500,E,,Public - Call ahead,Dealership business hours,,,,,,1,1,,Non-Networked,,200-8,35.957857,-86.80853,2022-02-10,39808,2022-02-10 19:42:29 UTC,P,,,2011-03-15,,,,,CHADEMO J1772 J1772COMBO,US,,,,Public - Appeler à l'avance,,public,CALL,,CAR_DEALER,,,,,,,Free,,,,,,,,,,false,,,,,,,,LD,false
ELEC,Newton Nissan of Gallatin,1461 Nashville Pike,,Gallatin,TN,37066,,615-451-6827,E,,Public - Call ahead,Dealership business hours,,,,,,1,1,,Non-Networked,,200-9,36.361376,-86.494932,2022-02-10,39809,2022-02-10 19:42:29 UTC,P,,,2011-03-15,,,,,CHADEMO J1772 J1772COMBO,US,,,,Public - Appeler à l'avance,,public,CALL,,CAR_DEALER,,,,,,,Free,,,,,,,,,,false,,,,,,,,LD,false
ELEC,Tri-Cities Nissan,3602 Bristol Hwy,,Johnson City,TN,37601,,423-282-4731,E,,Public - Call ahead,Dealership business hours,,,,,,1,,,Non-Networked,,200-9,36.374198,-82.372119,2020-06-09,39811,2023-02-15 22:45:41 UTC,P,,,2011-03-15,,,,,J1772,US,,,,Public - Appeler à l'avance,,public,CALL,,CAR_DEALER,,,,,,,Free,,,,,,,,,,false,,,,,,,,,false
ELEC,Wallace Nissan Oldsmobile,2733 E Stone Dr,,Kingsport,TN,37660,,423-288-5500,E,,Public - Call ahead,Dealership business hours,,,,,,3,,,Non-Networked,,GPS,36.551978,-82.487762,2020-08-05,39812,2023-02-15 22:45:41 UTC,P,,,2011-03-15,,,,,J1772,US,,,,Public - Appeler à l'avance,,public,CALL,,CAR_DEALER,,,,,,,Free,,,,,,,,,,false,,,,,,,,,false
ELEC,Ted Russell Nissan,8565 Kingston Pike,,Knoxville,TN,37919,,865-693-2856,E,,Public - Call ahead,Dealership business hours,,,,,,1,,,Non-Networked,,200-9,35.920587,-84.067881,2020-06-09,39813,2023-02-15 22:45:41 UTC,P,,,2011-03-15,,,,,J1772,US,,,,Public - Appeler à l'avance,,public,CALL,,CAR_DEALER,,,,,,,Free,,,,,,,,,,false,,,,,,,,,false
ELEC,Rusty Wallace Nissan,4515 Clinton Hwy,,Knoxville,TN,37912,,865-687-6111,E,,Public - Call ahead,Dealership business hours,,,,,,1,,,Non-Networked,,200-9,35.999617,-83.969451,2020-06-09,39814,2023-02-15 22:45:41 UTC,P,,,2011-03-15,,,,,J1772,US,,,,Public - Appeler à l'avance,,public,CALL,,CAR_DEALER,,,,,,,Free,,,,,,,,,,false,,,,,,,,,false
ELEC,Nissan of Rivergate,1550 Gallatin Pike N,,Madison,TN,37115,,615-865-7220,E,,Public - Call ahead,Dealership business hours,,,,,,1,1,,Non-Networked,,GPS,36.29062,-86.7051,2022-02-10,39815,2022-02-10 19:42:29 UTC,P,,,2019-05-01,,,,,CHADEMO J1772 J1772COMBO,US,,,,Public - Appeler à l'avance,,public,CALL,,CAR_DEALER,,,,,,,Free,,,,,,,,,,false,,,,,,,,LD,false
ELEC,Roberts Nissan,2747 Hillsboro Hwy,,Manchester,TN,37355,,931-728-2212,E,,Public - Call ahead,Dealership business hours,,,,,,1,,,Non-Networked,,200-9,35.454702,-86.041805,2020-06-09,39816,2023-02-15 22:45:41 UTC,P,,,2019-05-01,,,,,J1772,US,,,,Public - Appeler à l'avance,,public,CALL,,CAR_DEALER,,,,,,,Free,,,,,,,,,,false,,,,,,,,,false
ELEC,Weakley County Motors,841 N Lindell St,,Martin,TN,38237,,731-587-3141,E,,Public - Call ahead,Dealership business hours,,,,,,1,,,Non-Networked,,200-9,36.369277,-88.849653,2020-06-09,39817,2021-03-11 23:22:17 UTC,P,,,2011-03-15,,,,,J1772,US,,,,Public - Appeler à l'avance,,public,CALL,,CAR_DEALER,,,,,,,Free,,,,,,,,,,false,,,,,,,,,false
ELEC,AutoNation Nissan - Memphis,4140 Hacks Cross Rd,,Memphis,TN,38125,,901-759-6100,E,,Public - Call ahead,Dealership business hours,,,,,,1,,,Non-Networked,,200-9,35.0353,-89.795859,2020-06-09,39818,2023-02-15 22:45:41 UTC,P,,,2011-03-15,,,,,J1772,US,,,,Public - Appeler à l'avance,,public,CALL,,CAR_DEALER,,,,,,,Free,,,,,,,,,,false,,,,,,,,,false
ELEC,Jim Keras Nissan,2080 Covington Pike,,Memphis,TN,38128,,901-373-2800,E,,Public - Call ahead,Dealership business hours,,,,,,1,1,,Non-Networked,,200-9,35.181031,-89.895533,2022-03-07,39819,2023-02-14 15:54:11 UTC,P,,,2019-05-01,,,,,CHADEMO J1772 J1772COMBO,US,,,,Public - Appeler à l'avance,,public,CALL,,CAR_DEALER,,,,,,,Free,,,,,,,,,,false,,,,,,,,LD,false
ELEC,East Tennessee Nissan,5496 W Andrew Johnson Hwy,,Morristown,TN,37814,,423-587-2506,E,,Public - Call ahead,Dealership business hours,,,,,,1,,,Non-Networked,,200-9,36.18226,-83.382387,2020-06-09,39820,2023-02-15 22:45:41 UTC,P,,,2011-03-15,,,,,J1772,US,,,,Public - Appeler à l'avance,,public,CALL,,CAR_DEALER,,,,,,,Free,,,,,,,,,,false,,,,,,,,,false
ELEC,Nissan of Murfreesboro,814 Memorial Blvd,,Murfreesboro,TN,37129,,615-893-0252,E,,Public - Call ahead,Dealership business hours,,,,,,1,2,,Non-Networked,,200-9,35.854156,-86.394979,2022-02-10,39821,2022-02-10 19:42:29 UTC,P,,,2011-03-15,,,,,CHADEMO J1772 J1772COMBO,US,,,,Public - Appeler à l'avance,,public,CALL,,CAR_DEALER,,,,,,,Free,,,,,,,,,,false,,,,,,,,LD,false
ELEC,Action Nissan,307 Thompson Ln,,Nashville,TN,37211,,615-834-8244,E,,Public - Call ahead,Dealership business hours,,,,,,2,1,,Non-Networked,,200-9,36.110606,-86.743585,2022-02-10,39822,2022-02-10 19:42:29 UTC,P,,,2011-03-15,,,,,CHADEMO J1772 J1772COMBO,US,,,,Public - Appeler à l'avance,,public,CALL,,CAR_DEALER,,,,,,,Free,,,,,,,,,,false,,,,,,,,LD,false
ELEC,Downtown Nashville Nissan,25 Vantage Way,,Nashville,TN,37228,,615-248-5100,E,,Public - Call ahead,Dealership business hours,,,,,,2,1,,Non-Networked,,GPS,36.191053,-86.793132,2022-02-10,39823,2022-02-10 19:42:29 UTC,P,,,2011-03-15,,,,,CHADEMO J1772,US,,,,Public - Appeler à l'avance,,public,CALL,,CAR_DEALER,,,,,,,Free,,,,,,,,,,false,,,,,,,,LD,false
ELEC,Twin City Nissan,3247 Airport Hwy,,Alcoa,TN,37701,,865-970-4132,E,,Public - Call ahead,Dealership business hours,,,,,,2,,,Non-Networked,,GPS,35.830725,-83.974822,2020-08-05,39845,2023-02-15 22:45:41 UTC,P,,,2011-03-15,,,,,J1772,US,,,,Public - Appeler à l'avance,,public,CALL,,CAR_DEALER,,,,,,,Free,,,,,,,,,,false,,,,,,,,,false
ELEC,Wolfchase Nissan,2956 N Germantown Rd,,Bartlett,TN,38133,,901-255-3800,E,,Public - Call ahead,Dealership business hours,,,,,,2,1,,Non-Networked,,200-9,35.205818,-89.791337,2022-03-07,39846,2023-02-14 15:54:11 UTC,P,,,2011-03-15,,,,,CHADEMO J1772,US,,,,Public - Appeler à l'avance,,public,CALL,,CAR_DEALER,,,,,,,Free,,,,,,,,,,false,,,,,,,,LD,false
ELEC,Dutch Miller Nissan,235 Century Blvd,,Bristol,TN,37620,,423-989-6700,E,,Public - Call ahead,Dealership business hours,,,,,,1,,,Non-Networked,,GPS,36.54282,-82.2354,2022-04-06,39847,2023-02-14 15:54:11 UTC,P,,,2011-03-15,,,,,J1772,US,,,,Public - Appeler à l'avance,,public,CALL,,CAR_DEALER,,,,,,,Free,,,,,,,,,,false,,,,,,,,LD,false
ELEC,Nissan of Chattanooga East,2121 Chapman Rd,,Chattanooga,TN,37421,,423-381-6435,E,,Public - Call ahead,Dealership business hours,,,,,,1,,,Non-Networked,,200-9,35.056433,-85.190515,2020-06-09,39848,2021-03-11 23:22:17 UTC,P,,,2017-03-01,,,,,J1772,US,,,,Public - Appeler à l'avance,,public,CALL,,CAR_DEALER,,,,,,,Free,,,,,,,,,,false,,,,,,,,,false
ELEC,City of Kingsport - Parking Garage,215 W Center St,,Kingsport,TN,37660,,423-229-9309,E,,Public - Call ahead,24 hours daily,,,,,,8,,,Non-Networked,,200-9,36.547921,-82.56179,2022-09-14,41483,2023-02-14 15:54:11 UTC,LG,,,2011-07-01,,,,,J1772,US,,,,Public - Appeler à l'avance,,public,CALL,,PARKING_GARAGE,,,,,,,Free,,,,,,,,,,false,,,,,,,,LD,false
ELEC,Alexander's Storage,101 W 8th St,Located behind the building,Columbia,TN,38401,,931-381-0954,E,,Public,24 hours daily,,,,,,1,,,Non-Networked,,200-9,35.61323,-87.034614,2023-09-14,42872,2023-09-14 14:01:49 UTC,P,,,2011-12-31,,,,,J1772,US,,,,Public,,public,,,STORAGE,,,,,,,Free,,,,,,,,,,false,,,,,,,,MD,false
LNG,Clean Energy - Knoxville Flying J #722,800 Watt Rd,,Knoxville,TN,37932,,866-809-4869,E,,Public - Card key at all times,24 hours daily; call 866-809-4869 for required Clean Energy card; Also accepts PFGift Card,A CleanEnergy Comdata D EFS FleetOne FuelMan M TCH Tchek V Voyager Wright_Exp,,,,,,,,,,200-9,35.881382,-84.235647,2023-09-14,43665,2023-09-14 14:01:49 UTC,P,,,2015-01-14,,HD,,,,US,,,,Public - Carte-clé en tout temps,,public,KEY_ALWAYS,,TRAVEL_CENTER,,,,,NONE,,,,,,,,,,HD,,false,,,,,,,true,HD,
ELEC,Nissan North America,1 Nissan Way,,Franklin,TN,37067,,615-725-1000,E,,Public,24 hours daily,,,,,,4,3,,Non-Networked,,GPS,35.940203,-86.813764,2020-06-09,43762,2021-03-11 23:22:17 UTC,P,,,2016-01-01,,,,,CHADEMO J1772,US,,,,Public,,public,,,OFFICE_BLDG,,,,,,,,,,,,,,,,,false,,,,,,,,,false
ELEC,Jones Motor Co,1260 Wayne Rd,,Savannah,TN,38372,,731-925-0367,E,,Public - Call ahead,Dealership business hours,,,,,,1,,,Non-Networked,,200-9,35.226101,-88.224729,2020-06-09,47853,2021-03-11 23:22:17 UTC,P,,,2012-01-31,,,,,J1772,US,,,,Public - Appeler à l'avance,,public,CALL,,CAR_DEALER,,,,,,,Free,,,,,,,,,,false,,,,,,,,,false
E85,Thorntons #611,2815 Lebanon Pike,,Nashville,TN,37214,,615-886-4250,E,,Public,24 hours daily,A Cash Checks D M V Voyager Wright_Exp,,,,,,,,,,200-9,36.166836,-86.662358,2023-09-14,48955,2023-09-14 14:01:49 UTC,P,,,2012-03-15,,,,false,,US,,,,Public,,public,,,CONVENIENCE_STORE,,,,,,,,,,,,,,,,,false,,,,,,,,LD,
ELEC,McMinnville Electric System,300 W Main St,,McMinnville,TN,37110,,931-473-3144,E,,Public,24 hours daily,,,,,,1,,,Non-Networked,,200-9,35.682046,-85.776576,2021-01-14,49211,2023-09-25 14:15:30 UTC,P,,,2014-07-10,,,,,J1772,US,,,,Public,,public,,,UTILITY,,,,,,,,,,,,,,,,,false,,,,,,,,,false
E85,MAPCO #7502,2099 Wilma Rudolph Blvd,,Clarksville,TN,37040,,931-542-5695,E,,Public,24 hours daily,A Cash D M V,,,,,,,,,,200-8,36.5624,-87.31263,2023-09-14,50350,2023-09-14 14:01:49 UTC,P,,,2012-07-15,,,,false,,US,,,,Public,,public,,,CONVENIENCE_STORE,,,,,,,,,,,,,,,,,false,,,,,,,,MD,
E85,Kankus Express #21,3604 Brainerd Rd,,Chattanooga,TN,37411,,423-521-3888,E,,Public,24 hours daily,A Cash Checks D M V,,,,,,,,,,200-9,35.023591,-85.245716,2023-09-14,51186,2023-09-14 14:01:49 UTC,P,,,2013-01-15,,,,false,,US,,,,Public,,public,,,CONVENIENCE_STORE,,,,,,,,,,,,,,,,,false,,,,,,,,LD,
LPG,AgCentral Farmers Co-op,776 New Highway 68,,Sweetwater,TN,37874,,423-337-3551,E,,Public,"8am-5pm M-F, 8am-12pm Sat",Cash D M V,,,,,,,,,,200-9,35.59118,-84.479472,2022-09-14,51462,2023-02-14 15:54:11 UTC,P,,,2013-04-16,,,true,,,US,,,,Public,,public,,,COOP,,,,,,,,,"[""ACME""]",,,,,,,,false,,,,,,,,HD,
CNG,Athens Utilities Board,1818 Holiday Dr,,Athens,TN,37303,,423-745-4501,E,,Public - Credit card at all times,24 hours daily,A CREDIT D M V,,Q,3600,,,,,,,200-9,35.467829,-84.644781,2023-09-14,51621,2023-09-14 14:01:49 UTC,P,,,2013-04-20,,HD,,,,US,,,,Public - Carte de crédit en tout temps,,public,CREDIT_CARD_ALWAYS,,UTILITY,2,,216,30000,,,,,,,,Q,3600,HD,,,false,,,,,,false,,HD,
CNG,"Memphis Light, Gas and Water - South Center",3071 S Center Dr,Located off Brooks Rd at Highway 61,Memphis,TN,38109,,901-320-1062,E,,Public - Credit card at all times,24 hours daily,D FuelMan M V Voyager Wright_Exp,,B,3600,,,,,,,200-8,35.066272,-90.052743,2021-12-09,52211,2023-05-30 18:46:28 UTC,LG,,,2014-12-15,,HD,,,,US,,,,Public - Carte de crédit en tout temps,,public,CREDIT_CARD_ALWAYS,,UTILITY,4,,185,,,,,,,,,B,3600,HD,,,false,,,,,,,,HD,
E85,MAPCO Express #7508,1775 Madison St,,Clarksville,TN,37043,,931-553-0822,E,,Public,24 hours daily,A Cash D M V Voyager,,,,,,,,,,200-9,36.514438,-87.313746,2023-09-14,52254,2023-09-14 14:01:49 UTC,P,,,2013-06-15,,,,false,,US,,,,Public,,public,,,CONVENIENCE_STORE,,,,,,,,,,,,,,,,,false,,,,,,,,MD,
ELEC,Kidd Ford,5917 Manchester Hwy,,Morrison,TN,37357,,931-668-2177,E,,Public - Call ahead,Dealership business hours; customer use only,,,,,,1,,,Non-Networked,,200-9,35.632542,-85.852605,2023-09-14,52600,2023-09-14 14:01:49 UTC,P,,,2013-06-01,,,,,J1772,US,,,,Public - Appeler à l'avance,,public,CALL,,CAR_DEALER,,,,,,,Free,,,,,,,,,,true,,,,,,,,LD,false
ELEC,Shelby Farms Park Conservancy,518 Pine Lake Dr,,Memphis,TN,38134,,901-767-7275,E,,Public,Dawn to dusk daily,,,,,,10,,,Non-Networked,,GPS,35.140771,-89.834205,2021-09-10,52834,2022-02-10 19:42:29 UTC,LG,,,2016-09-01,,,,,J1772,US,,,,Public,,public,,,PARK,,,,,,,Free,,,,,,,,,SOLAR,false,,,,,,,,LD,false
ELEC,Vanderbilt University - Surface Lot,124 21st Ave S,,Nashville,TN,37212,,615-322-2554,E,,Public - Credit card at all times,24 hours daily; pay lot; Also accepts Vanderbilt ID,A D M V,,,,,10,,,Non-Networked,,200-9,36.148816,-86.799577,2023-01-10,52836,2023-02-14 15:54:11 UTC,P,,,2012-08-31,,,,,J1772,US,,,,Public - Carte de crédit en tout temps,,public,CREDIT_CARD_ALWAYS,,COLLEGE_CAMPUS,,,,,,,Free,,,,,,,,,SOLAR,true,,,,,,,,LD,false
E85,MAPCO Express #7507,7002 City Center Way,,Fairview,TN,37062,,615-799-6222,E,,Public,24 hours daily,A Cash D M V,,,,,,,,,,200-9,35.972924,-87.129719,2023-09-14,53029,2023-09-14 14:01:49 UTC,P,,,2016-11-15,,,,false,,US,,,,Public,,public,,,CONVENIENCE_STORE,,,,,,,,,,,,,,,,,false,,,,,,,,MD,
E85,Thorntons #612,2908 Medical Center Pkwy,,Murfreesboro,TN,37129,,615-895-6278,E,,Public,24 hours daily,A Cash Checks D M V Voyager Wright_Exp,,,,,,,,,,200-9,35.866292,-86.446952,2023-09-14,53031,2023-09-14 14:01:49 UTC,P,,,2012-09-15,,,,false,,US,,,,Public,,public,,,CONVENIENCE_STORE,,,,,,,,,,,,,,,,,false,,,,,,,,,
E85,MAPCO Express #7509,1500 Tiny Town Rd,,Clarksville,TN,37042,,931-906-2230,E,,Public,24 hours daily,A Cash Checks D M V Voyager Wright_Exp,,,,,,,,,,200-9,36.625167,-87.371106,2023-09-14,53360,2023-09-14 14:01:49 UTC,P,,,2013-10-01,,,,false,,US,,,,Public,,public,,,CONVENIENCE_STORE,,,,,,,,,,,,,,,,,false,,,,,,,,MD,
LPG,U-Haul,1691 Mallory Ln,,Brentwood,TN,37027,,615-372-0301,E,,Public,"7am-7pm M-Th and Sat, 7am-8pm F, 9am-5pm Sun",A Cash D Debit M V,,,,,,,,,,200-9,35.968595,-86.813605,2023-02-13,53485,2023-02-14 15:54:11 UTC,P,,,2013-11-14,,,true,,,US,,,,Public,,public,,,RENTAL_CAR_RETURN,,,,,,,,,"[""ACME"", ""QUICK_CONNECT""]",,,,,,,,false,,,,,,,,HD,
LPG,U-Haul,4001 Hixson Pike,,Chattanooga,TN,37415,,423-870-2144,E,,Public,"7am-7pm M-Th and Sat, 7am-8pm F, 9am-5pm Sun",A Cash D M V,,,,,,,,,,200-9,35.114706,-85.259857,2023-02-13,53486,2023-02-14 15:54:11 UTC,P,,,2013-11-14,,,true,,,US,,,,Public,,public,,,RENTAL_CAR_RETURN,,,,,,,,,"[""ACME"", ""QUICK_CONNECT""]",,,,,,,,false,,,,,,,,HD,
LPG,U-Haul,712 Providence Blvd,,Clarksville,TN,37042,,931-647-8028,E,,Public,"7am-7pm M-Th and Sat, 7am-8pm F, 9am-5pm Sun",A Cash D M V,,,,,,,,,,200-9,36.549705,-87.38476,2023-02-13,53487,2023-02-14 15:54:11 UTC,P,,,2013-11-14,,,true,,,US,,,,Public,,public,,,RENTAL_CAR_RETURN,,,,,,,,,"[""ACME"", ""QUICK_CONNECT""]",,,,,,,,false,,,,,,,,HD,
LPG,U-Haul,2830 Wilma Rudolph Blvd,,Clarksville,TN,37040,,931-648-0500,E,,Public,"7am-7pm M-Th and Sat, 7am-8pm F, 9am-5pm Sun",A Cash D M V,,,,,,,,,,200-9,36.589396,-87.294149,2023-02-13,53488,2023-02-14 15:54:11 UTC,P,,,2013-11-14,,,true,,,US,,,,Public,,public,,,RENTAL_CAR_RETURN,,,,,,,,,"[""ACME"", ""QUICK_CONNECT""]",,,,,,,,false,,,,,,,,HD,
LPG,U-Haul,208 W Main St,,Hendersonville,TN,37075,,615-822-4491,E,,Public,"7am-7pm M-Th and Sat, 7am-8pm F, 9am-5pm Sun",A Cash D M V,,,,,,,,,,200-9,36.305774,-86.619661,2023-02-13,53489,2023-02-14 15:54:11 UTC,P,,,2013-11-14,,,true,,,US,,,,Public,,public,,,RENTAL_CAR_RETURN,,,,,,,,,"[""ACME"", ""QUICK_CONNECT""]",,,,,,,,false,,,,,,,,HD,
LPG,U-Haul,4612 Rutledge Pike,,Knoxville,TN,37914,,865-521-7182,E,,Public,"7am-7pm M-Th and Sat, 7am-8pm F, 9am-5pm Sun",A Cash D M V,,,,,,,,,,200-9,36.010769,-83.869347,2023-02-13,53491,2023-02-14 15:54:11 UTC,P,,,2013-11-14,,,true,,,US,,,,Public,,public,,,RENTAL_CAR_RETURN,,,,,,,,,"[""ACME"", ""QUICK_CONNECT""]",,,,,,,,false,,,,,,,,HD,
LPG,U-Haul,2722 N Watkins,,Memphis,TN,38127,,901-353-2051,E,,Public,"7am-7pm M-Th and Sat, 7am-8pm F, 9am-5pm Sun",A Cash D M V,,,,,,,,,,200-9,35.199739,-90.007134,2023-02-13,53492,2023-02-14 15:54:11 UTC,P,,,2013-11-14,,,true,,,US,,,,Public,,public,,,RENTAL_CAR_RETURN,,,,,,,,,"[""QUICK_CONNECT"", ""ACME""]",,,,,,,,false,,,,,,,,,
LPG,U-Haul,7910 Highway 51 N,,Millington,TN,38053,,901-873-3300,E,,Public,"7am-7pm M-Th and Sat, 7am-8pm F, 9am-5pm Sun",A Cash D M V,,,,,,,,,,200-9,35.34187,-89.908895,2023-02-13,53494,2023-02-14 15:54:11 UTC,P,,,2013-11-14,,,true,,,US,,,,Public,,public,,,RENTAL_CAR_RETURN,,,,,,,,,"[""ACME"", ""QUICK_CONNECT""]",,,,,,,,false,,,,,,,,HD,
LPG,U-Haul,3904 Nolensville Rd,,Nashville,TN,37211,,615-832-2024,E,,Public,"7am-7pm M-Th and Sat, 7am-8pm F, 9am-5pm Sun",A Cash D M V,,,,,,,,,,GPS,36.086442864729,-86.7292736,2023-02-13,53496,2023-02-14 15:54:11 UTC,P,,,2013-11-14,,,true,,,US,,,,Public,,public,,,RENTAL_CAR_RETURN,,,,,,,,,"[""ACME"", ""QUICK_CONNECT""]",,,,,,,,false,,,,,,,,HD,
CNG,Trillium,402 N 1st St,"I-24, Exit 47",Nashville,TN,37207,,800-920-1166,E,,Public - Credit card at all times,24 hours daily,A D EFS M TCH Tchek Trillium V Voyager Wright_Exp,,Q,3600,,,,,,,200-9,36.178328,-86.774899,2022-06-14,53636,2023-05-30 18:46:28 UTC,P,,,2014-05-23,,HD,,,,US,,,,Public - Carte de crédit en tout temps,,public,CREDIT_CARD_ALWAYS,,STANDALONE_STATION,1,,700,,,,,,,,,Q,3600,HD,,,false,,,,,,,,HD,
CNG,Clean N' Green,1428 Antioch Pike,,Nashville,TN,37013,,800-331-3441,E,,Public - Credit card at all times,24 hours daily; tight turning radius for 53 foot long trailers,D FuelMan M Proprietor V Voyager Wright_Exp,,Q,3600,,,,,,,200-9,36.081876,-86.686034,2023-07-11,53767,2023-07-11 18:28:56 UTC,P,,,2014-05-20,,HD,,,,US,,,,Public - Carte de crédit en tout temps,,public,CREDIT_CARD_ALWAYS,,STANDALONE_STATION,1,,,,,,,,,,,Q,3600,HD,,,false,,,,,,,,HD,
E85,Speedway #7124,1135 Murfreesboro Rd,,Lebanon,TN,37090,,615-547-1163,E,,Public,24 hours daily,A Cash D M V Voyager Wright_Exp,,,,,,,,,,200-9,36.173286,-86.302362,2023-08-10,53787,2023-08-10 16:58:49 UTC,P,,,2013-12-15,,,,false,,US,,,,Public,,public,,,CONVENIENCE_STORE,,,,,,,,,,,,,,,,,false,,,,,,,,MD,
E85,Speedway #7112,2600 Gallatin Pike,,Nashville,TN,37216,,615-227-6307,E,,Public,24 hours daily,A Cash D M V Voyager Wright_Exp,,,,,,,,,,200-9,36.196893,-86.741653,2023-08-10,53788,2023-08-10 16:58:49 UTC,P,,,2013-12-15,,,,false,,US,,,,Public,,public,,,CONVENIENCE_STORE,,,,,,,,,,,,,,,,,false,,,,,,,,MD,
E85,Speedway #7136,710 Murfreesboro Pike,,Nashville,TN,37210,,615-742-6404,E,,Public,24 hours daily,A Cash D M V Voyager Wright_Exp,,,,,,,,,,200-8,36.139061,-86.732748,2023-07-11,53789,2023-07-11 18:28:56 UTC,P,,,2013-12-15,,,,false,,US,,,,Public,,public,,,CONVENIENCE_STORE,,,,,,,,,,,,,,,,,false,,,,,,,,MD,
E85,Speedway #7110,505 Highway 76,,White House,TN,37188,,615-672-7210,E,,Public,24 hours daily,A Cash CREDIT D Debit M V Voyager Wright_Exp,,,,,,,,,,200-9,36.468161,-86.666189,2023-08-10,53790,2023-08-10 16:58:49 UTC,P,,,2013-12-15,,,,false,,US,,,,Public,,public,,,CONVENIENCE_STORE,,,,,,,,,,,,,,,,,false,,,,,,,,MD,
ELEC,Jenkins and Wynne Ford Lincoln Honda,2655 Trenton Rd,,Clarksville,TN,37040,,931-538-7000,E,,Public - Call ahead,24 hours daily; Drivers must bring their own J1772 cordset for Level 1 charging,,,,,2,2,,,Non-Networked,,200-8,36.583614,-87.314186,2022-09-14,53986,2023-02-14 15:54:11 UTC,P,,,2013-04-01,,,,,J1772 NEMA520,US,,,,Public - Appeler à l'avance,,public,CALL,,CAR_DEALER,,,,,,,Free,,,,,,,,,,false,,,,,,,,LD,false
ELEC,AutoNation Ford Wolfchase,7925 Stage Rd,Highway 64,Memphis,TN,38133,,901-209-1257,E,,Public - Call ahead,Dealership business hours; priority for dealership vehicles,,,,,,2,,,Non-Networked,,200-9,35.203552,-89.799194,2023-09-14,53987,2023-09-14 14:01:49 UTC,P,,,2013-04-01,,,,,J1772,US,,,,Public - Appeler à l'avance,,public,CALL,,CAR_DEALER,,,,,,,Free,,,,,,,,,,false,,,,,,,,LD,false
E85,Speedway #7135,201 25th St,,Cleveland,TN,37311,,423-476-4307,E,,Public,24 hours daily,A Cash D M V Voyager Wright_Exp,,,,,,,,,,200-8,35.176606,-84.861838,2023-08-10,60570,2023-08-10 16:58:49 UTC,P,,,2014-01-09,,,,false,,US,,,,Public,,public,,,CONVENIENCE_STORE,,,,,,,,,,,,,,,,,false,,,,,,,,MD,
E85,MAPCO #7514,2491 Fort Campbell Blvd,,Clarksville,TN,37040,,931-431-6270,E,,Public,24 hours daily,A Cash D M V Voyager Wright_Exp,,,,,,,,,,200-9,36.6149,-87.430118,2023-09-14,60973,2023-09-14 14:01:49 UTC,P,,,2014-03-01,,,,false,,US,,,,Public,,public,,,CONVENIENCE_STORE,,,,,,,,,,,,,,,,,false,,,,,,,,MD,
E85,Speedway #7126,2896 Paul Huff Pkwy NW,,Cleveland,TN,37312,,423-472-4711,E,,Public,24 hours daily,A Cash CREDIT D Debit M V Voyager Wright_Exp,,,,,,,,,,200-9,35.212796,-84.868333,2023-08-10,61559,2023-08-10 16:58:49 UTC,P,,,2014-04-01,,,,false,,US,,,,Public,,public,,,CONVENIENCE_STORE,,,,,,,,,,,,,,,,,false,,,,,,,,MD,
CNG,Sevier County Utility District,420 Robert Henderson Rd,,Sevierville,TN,37862,,865-453-3272,E,,Public - Credit card at all times,24 hours daily,A D M Voyager,,Q,3600,,,,,,,200-8,35.869632,-83.540182,2021-12-09,61650,2023-05-30 18:46:28 UTC,T,,,2014-04-30,,HD,,,,US,,,,Public - Carte de crédit en tout temps,,public,CREDIT_CARD_ALWAYS,,UTILITY,2,,,,,,,,,,,Q,3600,HD,,,false,,,,,,false,,HD,
E85,Speedway #7127,2475 Tiny Town Rd,,Clarksville,TN,37042,,931-551-3484,E,,Public,24 hours daily,A Cash D M V Voyager Wright_Exp,,,,,,,,,,200-9,36.630051,-87.351438,2023-08-10,61908,2023-08-10 16:58:49 UTC,P,,,2014-05-01,,,,false,,US,,,,Public,,public,,,CONVENIENCE_STORE,,,,,,,,,,,,,,,,,false,,,,,,,,MD,
CNG,Piedmont Natural Gas - Nashville,541 Spence Ln,,Nashville,TN,37210,,877-840-0043,E,,Public - Credit card at all times,24 hours daily,A Comdata D EFS FleetOne FuelMan M TCH Tchek V Voyager Wright_Exp,,Q,3600,,,,,,,200-9,36.1425,-86.722855,2023-07-11,62264,2023-07-11 18:28:56 UTC,T,,,2014-07-15,,HD,,,,US,,,,Public - Carte de crédit en tout temps,,public,CREDIT_CARD_ALWAYS,,UTILITY,4,NONE,,,,,,,,,,Q,3600,HD,,,false,,,,,,true,,HD,
ELEC,BMW NASHVILLE STATION 01,4013 Armory Oaks Dr,,Nashville,TN,37204,,888-758-4389,E,,Public,24 hours daily,,,,,,2,,,ChargePoint Network,http://www.chargepoint.com/,GPS,36.104589,-86.761033,2023-10-23,62273,2023-10-23 00:06:32 UTC,,,,2014-06-27,,,,,J1772,US,,,,Public,,public,,,,,,,,,,,,,,,,,,,,,,,,,,,,,false
E85,Speedway #7114,6121 Lee Hwy,,Chattanooga,TN,37421,,423-296-1069,E,,Public,24 hours daily,A Cash D M V Voyager Wright_Exp,,,,,,,,,,200-9,35.029653,-85.187413,2023-08-10,62320,2023-08-10 16:58:49 UTC,P,,,2014-06-20,,,,false,,US,,,,Public,,public,,,CONVENIENCE_STORE,,,,,,,,,,,,,,,,,false,,,,,,,,MD,
CNG,Beyond6,1130 W Highway 25,Co-Located with Time Out Travel Center,Newport,TN,37821,,877-872-3966,E,,Public - Credit card at all times,24 hours daily,A D FuelMan M V Wright_Exp,,Q,3600,,,,,,,200-9,35.972547,-83.247995,2023-04-06,62538,2023-05-30 18:46:28 UTC,P,,,2015-08-07,,HD,,,,US,,,,Public - Carte de crédit en tout temps,,public,CREDIT_CARD_ALWAYS,,TRUCK_STOP,3,NONE,755,56250,,,,,,,,Q,3600,HD,,,false,,,,,,true,,HD,
E85,Speedway #7107,1619 New Salem Hwy,,Murfreesboro,TN,37128,,615-867-1794,E,,Public,24 hours daily,A Cash D M V Voyager Wright_Exp,,,,,,,,,,200-9,35.823854,-86.415728,2023-08-10,62619,2023-08-10 16:58:49 UTC,P,,,2014-07-28,,,,false,,US,,,,Public,,public,,,CONVENIENCE_STORE,,,,,,,,,,,,,,,,,false,,,,,,,,MD,
E85,Speedway #7134,4343 Old Hickory Blvd,,Old Hickory,TN,37138,,615-847-1681,E,,Public,24 hours daily,A Cash D M V Voyager Wright_Exp,,,,,,,,,,200-9,36.217262,-86.624221,2023-08-10,62620,2023-08-10 16:58:49 UTC,P,,,2014-07-28,,,,false,,US,,,,Public,,public,,,CONVENIENCE_STORE,,,,,,,,,,,,,,,,,false,,,,,,,,MD,
E85,Speedway #7151,4222 Ringgold Rd,,East Ridge,TN,37412,,423-624-4073,E,,Public,24 hours daily,A Cash D M V Voyager Wright_Exp,,,,,,,,,,200-9,34.996287,-85.241751,2023-08-10,62621,2023-08-10 16:58:49 UTC,P,,,2014-07-28,,,,false,,US,,,,Public,,public,,,CONVENIENCE_STORE,,,,,,,,,,,,,,,,,false,,,,,,,,MD,
ELEC,APSU LOT 9,311 Ford St,,Clarksville,TN,37040,,888-758-4389,E,,Public,24 hours daily,,,,,,2,,,ChargePoint Network,http://www.chargepoint.com/,GPS,36.532847,-87.349204,2023-10-23,62789,2023-10-23 00:07:03 UTC,,,,2014-08-05,,,,,J1772,US,,,,Public,,public,,,,,,,,,,,,,,,,,,,,,,,,,,,,,false
ELEC,METRO NASHVILLE MIDTOWN HILLS,1441 12th Ave S,,Nashville,TN,37203,,888-758-4389,E,,Public,24 hours daily,,,,,,2,,,ChargePoint Network,http://www.chargepoint.com/,GPS,36.137258,-86.788609,2023-10-23,62807,2023-10-23 00:06:41 UTC,,,,2014-08-07,,,,,J1772,US,,,,Public,,public,,,,,,,,,,,,,,,,,,,,,,,,,,,,,false
ELEC,METRO NASHVILLE LENTZ 3,2500 Charlotte Ave,,Nashville,TN,37203,,888-758-4389,E,,Public,24 hours daily,,,,,,2,,,ChargePoint Network,http://www.chargepoint.com/,GPS,36.15557,-86.813431,2023-10-23,63039,2023-10-23 00:28:40 UTC,,,,2014-08-26,,,,,J1772,US,,,,Public,,public,,,,,,,,,,,,,,,,,,,,,,,,,,,,,false
ELEC,Benton Nissan - Columbia,1510 Nashville Hwy,,Columbia,TN,38401,,,E,,Public - Call ahead,Dealership business hours; contact 931-388-2023 for more information,,,,,,1,1,,Non-Networked,,GPS,35.649166,-87.011382,2020-06-09,63441,2023-02-15 22:45:41 UTC,P,,,2011-04-05,,,,,CHADEMO J1772,US,,,,Public - Appeler à l'avance,,public,CALL,,CAR_DEALER,,,,,,,Free,,,,,,,,,,false,,,,,,,,,false
ELEC,Mountain View Ford Lincoln,301 E 20th St,,Chattanooga,TN,37408,,423-756-1331,E,,Public - Call ahead,Dealership business hours; customer use only,,,,,,2,,,Non-Networked,,200-9,35.03095,-85.305742,2023-09-14,63597,2023-09-14 14:01:49 UTC,P,,,2013-09-01,,,,,J1772,US,,,,Public - Appeler à l'avance,,public,CALL,,CAR_DEALER,,,,,,,Free,,,,,,,,,,true,,,,,,,,LD,false
E85,Speedway #7142,1975 Murfreesboro Pike,,Nashville,TN,37217,,615-365-2532,E,,Public,24 hours daily,A Cash D M V Voyager Wright_Exp,,,,,,,,,,200-8,36.095983,-86.655354,2023-08-10,64261,2023-08-10 16:58:49 UTC,P,,,2014-11-15,,,,false,,US,,,,Public,,public,,,CONVENIENCE_STORE,,,,,,,,,,,,,,,,,false,,,,,,,,MD,
E85,Speedway #7152,2245 Hickory Valley Rd,,Chattanooga,TN,37412,,423-855-2809,E,,Public,24 hours daily,A Cash D M V Voyager Wright_Exp,,,,,,,,,,200-9,35.045682,-85.167127,2023-08-10,64262,2023-08-10 16:58:49 UTC,P,,,2015-02-10,,,,false,,US,,,,Public,,public,,,CONVENIENCE_STORE,,,,,,,,,,,,,,,,,false,,,,,,,,MD,
E85,Speedway #7139,1063 W Main St,,Hendersonville,TN,37075,,615-824-9390,E,,Public,24 hours daily,A Cash D M V Voyager Wright_Exp,,,,,,,,,,200-9,36.305665,-86.65358,2023-08-10,64263,2023-08-10 16:58:49 UTC,P,,,2014-11-15,,,,false,,US,,,,Public,,public,,,CONVENIENCE_STORE,,,,,,,,,,,,,,,,,false,,,,,,,,MD,
E85,Speedway #7147,2920 Decatur Pike,,Athens,TN,37303,,423-746-2460,E,,Public,24 hours daily,A Cash CREDIT D Debit M V Voyager Wright_Exp,,,,,,,,,,200-8,35.468585,-84.653231,2023-08-10,64264,2023-08-10 16:58:49 UTC,P,,,2014-11-15,,,,false,,US,,,,Public,,public,,,CONVENIENCE_STORE,,,,,,,,,,,,,,,,,false,,,,,,,,MD,
ELEC,METRO NASHVILLE FULTON GARAGE 5,1st Ave S,,Nashville,TN,37210,,888-758-4389,E,,Public,24 hours daily,,,,,,2,,,ChargePoint Network,http://www.chargepoint.com/,GPS,36.153934,-86.767472,2023-10-23,64552,2023-10-23 00:07:30 UTC,,,,2014-12-09,,,,,J1772,US,,,,Public,,public,,,,,,,,,,,,,,,,,,,,,,,,,,,,,false
E85,Speedway #7148,450 Highway 109 N,,Lebanon,TN,37090,,615-444-4272,E,,Public,24 hours daily,A Cash D M V Voyager Wright_Exp,,,,,,,,,,200-9,36.191888,-86.411993,2023-08-10,65611,2023-08-10 16:58:49 UTC,P,,,2015-02-10,,,,false,,US,,,,Public,,public,,,CONVENIENCE_STORE,,,,,,,,,,,,,,,,,false,,,,,,,,MD,
E85,Speedway #7154,2018 US Highway 70 E,,Jackson,TN,38305,,731-424-9640,E,,Public,24 hours daily,A Cash D M V Voyager Wright_Exp,,,,,,,,,,200-9,35.676637,-88.745412,2023-08-10,65612,2023-08-10 16:58:49 UTC,P,,,2015-02-10,,,,false,,US,,,,Public,,public,,,CONVENIENCE_STORE,,,,,,,,,,,,,,,,,false,,,,,,,,MD,
E85,Speedway #7158,1898 Genesis Rd,,Crossville,TN,38571,,931-707-8802,E,,Public,24 hours daily,A Cash D M V Voyager Wright_Exp,,,,,,,,,,200-9,35.978044,-85.015296,2023-08-10,65613,2023-08-10 16:58:49 UTC,P,,,2015-02-10,,,,false,,US,,,,Public,,public,,,CONVENIENCE_STORE,,,,,,,,,,,,,,,,,false,,,,,,,,MD,
E85,Speedway #7162,2230 Westland Dr,,Cleveland,TN,37311,,423-473-4665,E,,Public,24 hours daily,A Cash D M V Voyager Wright_Exp,,,,,,,,,,200-8,35.138017,-84.904828,2023-08-10,65614,2023-08-10 16:58:49 UTC,P,,,2015-02-10,,,,false,,US,,,,Public,,public,,,CONVENIENCE_STORE,,,,,,,,,,,,,,,,,false,,,,,,,,MD,
E85,Speedway #7163,2522 Christmasville Rd,,Jackson,TN,38305,,731-424-7039,E,,Public,24 hours daily,A Cash CREDIT D Debit M V Voyager Wright_Exp,,,,,,,,,,200-8,35.683776,-88.778899,2023-08-10,65615,2023-08-10 16:58:49 UTC,P,,,2015-02-10,,,,false,,US,,,,Public,,public,,,CONVENIENCE_STORE,,,,,,,,,,,,,,,,,false,,,,,,,,MD,
LPG,Webbtown Propane Co,4109 Red Boiling Springs Rd,,Lafayette,TN,37083,,615-666-2550,E,,Public,7:30am-4pm M-F,A Cash Checks D M V,,,,,,,,,,200-8,36.500525,-85.96927,2022-08-10,65954,2023-02-14 15:54:11 UTC,P,,,2015-02-27,,,true,,,US,,,,Public,,public,,,FUEL_RESELLER,,,,,,,,,"[""ACME""]",,,,,,,,false,,,,,,,,HD,
ELEC,METRO NASHVILLE DOUGLAS HS 2,621 Howerton St,,Nashville,TN,37206,,888-758-4389,E,,Public,24 hours daily,,,,,,2,,,ChargePoint Network,http://www.chargepoint.com/,GPS,36.176117,-86.762044,2023-10-23,68034,2023-10-23 00:32:09 UTC,,,,2015-06-25,,,,,J1772,US,,,,Public,,public,,,,,,,,,,,,,,,,,,,,,,,,,,,,,false
ELEC,GARAGE RAMP PINNACLE 1,150 3rd Ave S 150 3rd Ave South,,Nashville,TN,37201,,888-758-4389,E,,Public,24 hours daily,,,,,,2,,,ChargePoint Network,http://www.chargepoint.com/,GPS,36.160453,-86.774698,2023-10-23,68143,2023-10-23 00:10:21 UTC,,,,2015-06-27,,,,,J1772,US,,,,Public,,public,,,,,,,,,,,,,,,,,,,,,,,,,,,,,false
ELEC,SEVIERVILLE TANGER OUTLET 1,1641 Parkway,,Sevierville,TN,37862,,888-758-4389,E,,Public,24 hours daily,,,,,,2,,,ChargePoint Network,http://www.chargepoint.com/,GPS,35.832754,-83.570439,2023-10-23,68198,2023-10-23 00:10:08 UTC,,,,2015-07-09,,,,,J1772,US,,,,Public,,public,,,,,,,,,,,,,,,,,,,,,,,,,,,,,false
ELEC,Publix #1211,4324 Harding Pike,Located in the bottom level of the parking garage near the elevators,Nashville,TN,37205,,615-279-2038,E,,Public,Store business hours; customer use only while shopping at Publix,,,,,,1,,,Non-Networked,,GPS,36.12718,-86.84697,2022-04-06,68381,2023-02-14 15:54:11 UTC,P,,,2011-03-16,,,,,J1772,US,,,,Public,,public,,,GROCERY,,,,,,,"Free, only while shopping in Publix",,,,,,,,,,true,,,,,,,,LD,false
ELEC,Carlock Nissan - Jackson,495 Vann Dr,,Jackson,TN,38305,,,E,,Public - Call ahead,Dealership business hours; contact 731-422-4658 for more information,,,,,,,1,,Non-Networked,,GPS,35.668125,-88.84297,2022-03-07,68421,2023-02-14 15:54:11 UTC,P,,,2015-04-01,,,,,CHADEMO,US,,,,Public - Appeler à l'avance,,public,CALL,,CAR_DEALER,,,,,,,Free,,,,,,,,,,false,,,,,,,,LD,false
CNG,Greater Dickson Gas Authority,605 E Walnut St,,Dickson,TN,37055,,615-441-2830,E,,Public - Credit card at all times,24 hours daily,A Comdata D M V Voyager,,B,3600,,,,,,,200-9,36.070478,-87.382391,2023-09-14,69204,2023-09-14 14:01:49 UTC,T,,,2015-08-17,,HD,,,,US,,,,Public - Carte de crédit en tout temps,,public,CREDIT_CARD_ALWAYS,,UTILITY,1,,,,,,,,,,,B,3600,HD,,,false,,,,,,false,,HD,
E85,MAPCO #3298,404 S Broadway,,Portland,TN,37147,,615-325-3940,E,,Public,24 hours daily,A Cash Checks D M V Voyager Wright_Exp,,,,,,,,,,200-9,36.576089,-86.513786,2023-09-14,69611,2023-09-14 14:01:49 UTC,P,,,2015-08-15,,,,false,,US,,,,Public,,public,,,CONVENIENCE_STORE,,,,,,,,,,,,,,,,,false,,,,,,,,MD,
E85,Speedway #7164,2908 Memorial Blvd,,Murfreesboro,TN,37129,,615-907-8932,E,,Public,24 hours daily,A Cash Checks D M Speedway V Voyager Wright_Exp,,,,,,,,,,200-9,35.896796,-86.381832,2023-08-10,70618,2023-08-10 16:58:49 UTC,P,,,2015-10-15,,,,false,,US,,,,Public,,public,,,CONVENIENCE_STORE,,,,,,,,,,,,,,,,,false,,,,,,,,MD,
ELEC,METRO NASHVILLE MNFD STATION 19,524b 26th Ave N,,Nashville,TN,37209,,888-758-4389,E,,Public,24 hours daily,,,,,,1,,,ChargePoint Network,http://www.chargepoint.com/,GPS,36.156447,-86.815539,2023-10-23,70728,2023-10-23 00:09:39 UTC,,,,2015-10-29,,,,,J1772,US,,,,Public,,public,,,,,,,,,,,,,,,,,,,,,,,,,,,,,false
E85,Speedway #7156,617 Lovell Rd,,Knoxville,TN,37932,,865-288-6391,E,,Public,24 hours daily,A Cash D M V Voyager Wright_Exp,,,,,,,,,,200-9,35.909369,-84.150218,2023-08-10,71610,2023-08-10 16:58:49 UTC,P,,,2015-12-15,,,,false,,US,,,,Public,,public,,,CONVENIENCE_STORE,,,,,,,,,,,,,,,,,false,,,,,,,,MD,
ELEC,City of Etowah - Depot Parking,801 Tennessee Ave,Located at 9th and Tennessee Ave,Etowah,TN,37331,,423-263-9441,E,,Public,24 hours daily,,,,,,1,,,Non-Networked,,200-9,35.322918,-84.52522,2023-01-10,73225,2023-02-14 15:54:11 UTC,LG,,,2014-11-01,,,,,J1772,US,,,,Public,,public,,,PARKING_LOT,,,,,,,Free,,,,,,,,,,false,,,,,,,,LD,false
E85,Speedway #7106,855 1st Ave S,,Baxter,TN,38544,,931-858-2262,E,,Public - Credit card at all times,24 hours daily,A Cash Checks D M V Voyager Wright_Exp,,,,,,,,,,GPS,36.14039018906882,-85.62924776983641,2023-08-10,73598,2023-08-10 16:58:49 UTC,P,,,2016-02-15,,,,false,,US,,,,Public - Carte de crédit en tout temps,,public,CREDIT_CARD_ALWAYS,,CONVENIENCE_STORE,,,,,,,,,,,,,,,,,false,,,,,,,,MD,
E85,Speedway #7165,3162 S Church St,,Murfreesboro,TN,37128,,615-494-4371,E,,Public,24 hours daily,A Cash Checks D M V Voyager,,,,,,,,,,GPS,35.786256,-86.400758,2023-08-10,73599,2023-08-10 16:58:49 UTC,P,,,2016-02-15,,,,false,,US,,,,Public,,public,,,CONVENIENCE_STORE,,,,,,,,,,,,,,,,,false,,,,,,,,MD,
E85,Speedway #7166,12115 Lebanon Rd,,Mt. Juliet,TN,37122,,615-754-0023,E,,Public,24 hours daily,A Cash Checks D M V Voyager Wright_Exp,,,,,,,,,,200-9,36.231282,-86.529904,2023-08-10,73600,2023-08-10 16:58:49 UTC,LG,,,2016-02-15,,,,false,,US,,,,Public,,public,,,CONVENIENCE_STORE,,,,,,,,,,,,,,,,,false,,,,,,,,MD,
E85,Speedway #7167,1330 E 3rd St,,Chattanooga,TN,37404,,423-493-0670,E,,Public,24 hours daily,A Cash Checks D M V Voyager Wright_Exp,,,,,,,,,,200-9,35.043497,-85.279623,2023-08-10,73601,2023-08-10 16:58:49 UTC,P,,,2016-02-15,,,,false,,US,,,,Public,,public,,,CONVENIENCE_STORE,,,,,,,,,,,,,,,,,false,,,,,,,,MD,
E85,Speedway #7171,605 N Jackson St,,Tullahoma,TN,37388,,931-454-0501,E,,Public,24 hours daily,A Cash Checks D M V Voyager Wright_Exp,,,,,,,,,,200-9,35.367115,-86.216699,2023-08-10,73602,2023-08-10 16:58:49 UTC,P,,,2016-02-15,,,,false,,US,,,,Public,,public,,,CONVENIENCE_STORE,,,,,,,,,,,,,,,,,false,,,,,,,,MD,
E85,Speedway #7172,320 Providence Blvd,,Clarksville,TN,37042,,931-648-9322,E,,Public,24 hours daily,A Cash Checks D M V Voyager Wright_Exp,,,,,,,,,,200-9,36.546633,-87.376663,2023-08-10,73603,2023-08-10 16:58:49 UTC,P,,,2016-02-15,,,,false,,US,,,,Public,,public,,,CONVENIENCE_STORE,,,,,,,,,,,,,,,,,false,,,,,,,,MD,
E85,Speedway #7176,1535 Nashville Hwy,,Columbia,TN,38401,,931-840-4998,E,,Public,24 hours daily,A Cash Checks D M V Voyager Wright_Exp,,,,,,,,,,200-9,35.651022,-87.012975,2023-08-10,73604,2023-08-10 16:58:49 UTC,P,,,2016-02-15,,,,false,,US,,,,Public,,public,,,CONVENIENCE_STORE,,,,,,,,,,,,,,,,,false,,,,,,,,MD,
ELEC,METRO NASHVILLE BELLEVUE LIB,720 Baugh Rd,,Nashville,TN,37221,,888-758-4389,E,,Public,24 hours daily,,,,,,1,,,ChargePoint Network,http://www.chargepoint.com/,GPS,36.06949,-86.936094,2023-10-23,73707,2023-10-23 00:24:52 UTC,,,,2016-02-26,,,,,J1772,US,,,,Public,,public,,,,,,,,,,,,,,,,,,,,,,,,,,,,,false
E85,Thorntons #600,300 Sam Ridley Pkwy E,,Smyrna,TN,37167,,615-459-6883,E,,Public,24 hours daily,A Cash Checks D M V Voyager Wright_Exp,,,,,,,,,,200-9,35.995711,-86.496684,2023-09-14,73895,2023-09-14 14:01:49 UTC,P,,,2007-06-06,,,,false,,US,,,,Public,,public,,,CONVENIENCE_STORE,,,,,,,,,,,,,,,,,false,,,,,,,,LD,
ELEC,METRO NASHVILLE NFD 20,1630 Harding Pl,,Nashville,TN,37215,,888-758-4389,E,,Public,24 hours daily,,,,,,1,,,ChargePoint Network,http://www.chargepoint.com/,GPS,36.091731,-86.826441,2023-10-23,74075,2023-10-23 00:09:43 UTC,,,,2016-03-08,,,,,J1772,US,,,,Public,,public,,,,,,,,,,,,,,,,,,,,,,,,,,,,,false
ELEC,CARTA CARTA NORTH,215 Broad St,,Chattanooga,TN,37402,,888-758-4389,E,,Public,24 hours daily,,,,,,2,,,ChargePoint Network,http://www.chargepoint.com/,GPS,35.05385,-85.31132,2023-10-23,75629,2023-10-23 00:12:57 UTC,,,,2016-05-14,,,,,J1772,US,,,,Public,,public,,,,,,,,,,,,,,,,,,,,,,,,,,,,,false
ELEC,CARTA THEATRECENTRE 1,200 River St,,Chattanooga,TN,37405,,888-758-4389,E,,Public,24 hours daily,,,,,,2,,,ChargePoint Network,http://www.chargepoint.com/,GPS,35.061201,-85.30598,2023-10-23,75630,2023-10-23 00:12:57 UTC,,,,2016-05-14,,,,,J1772,US,,,,Public,,public,,,,,,,,,,,,,,,,,,,,,,,,,,,,,false
ELEC,CARTA N SHORE GARAGE,305 Frazier Ave,,Chattanooga,TN,37405,,888-758-4389,E,,Public,24 hours daily,,,,,,2,,,ChargePoint Network,http://www.chargepoint.com/,GPS,35.062618,-85.305176,2023-10-23,75631,2023-10-23 00:12:57 UTC,,,,2016-05-14,,,,,J1772,US,,,,Public,,public,,,,,,,,,,,,,,,,,,,,,,,,,,,,,false
ELEC,CARTA SHUTTLE PARK S,1398 Market Street,,Chattanooga,TN,37402,,888-758-4389,E,,Public,24 hours daily,,,,,,2,,,ChargePoint Network,http://www.chargepoint.com/,GPS,35.038031,-85.307156,2023-10-23,75671,2023-10-23 00:12:57 UTC,,,,2016-05-19,,,,,J1772,US,,,,Public,,public,,,,,,,,,,,,,,,,,,,,,,,,,,,,,false
ELEC,CARTA INCLINE RAILWAY,3917 St Elmo Ave,,Chattanooga,TN,37409,,888-758-4389,E,,Public,24 hours daily,,,,,,2,,,ChargePoint Network,http://www.chargepoint.com/,GPS,35.009534,-85.328442,2023-10-23,75696,2023-10-23 00:12:56 UTC,,,,2016-05-21,,,,,J1772,US,,,,Public,,public,,,,,,,,,,,,,,,,,,,,,,,,,,,,,false
CNG,Beyond6,1560 Winchester Hwy,,Fayetteville,TN,37334,,877-872-3966,E,,Public - Credit card at all times,24 hours daily,A Comdata D M V Wright_Exp,,Q,3600,,,,,,,200-9,35.165628,-86.535068,2023-04-06,75846,2023-05-30 18:46:28 UTC,P,,,2017-01-15,,HD,,,,US,,,,Public - Carte de crédit en tout temps,,public,CREDIT_CARD_ALWAYS,,STANDALONE_STATION,3,NONE,1000,129501,,,,,,,,Q,3600,HD,,,false,,,,,,true,,HD,
ELEC,GERMANTOWN1 IMT GERMANTOWN2,1100 3rd Ave N,,Nashville,TN,37208,,888-758-4389,E,,Public,24 hours daily,,,,,,1,,,ChargePoint Network,http://www.chargepoint.com/,GPS,36.17576,-86.784768,2023-10-23,76199,2023-10-23 00:13:41 UTC,,,,2016-06-08,,,,,J1772,US,,,,Public,,public,,,,,,,,,,,,,,,,,,,,,,,,,,,,,false
E85,Speedway #7159,1065 Deep Springs Rd,,Dandridge,TN,37725,,865-397-0985,E,,Public,24 hours daily,A Cash D M V Voyager Wright_Exp,,,,,,,,,,200-9,36.010385,-83.532717,2023-08-10,76906,2023-08-10 16:58:49 UTC,P,,,2016-07-15,,,,false,,US,,,,Public,,public,,,CONVENIENCE_STORE,,,,,,,,,,,,,,,,,false,,,,,,,,MD,
ELEC,CARTA ERLANGER E HOSP,1751 Gunbarrel Road,,Chattanooga,TN,37421,,888-758-4389,E,,Public,24 hours daily,,,,,,2,,,ChargePoint Network,http://www.chargepoint.com/,GPS,35.023738,-85.160777,2023-10-23,77360,2023-10-23 00:13:42 UTC,,,,2016-08-06,,,,,J1772,US,,,,Public,,public,,,,,,,,,,,,,,,,,,,,,,,,,,,,,false
ELEC,CARTA NORTHGATE MALL,271 Northgate Mall Dr,,Chattanooga,TN,37343,,888-758-4389,E,,Public,24 hours daily,,,,,,2,,,ChargePoint Network,http://www.chargepoint.com/,GPS,35.130823,-85.238173,2023-10-23,77361,2023-10-23 00:13:42 UTC,,,,2016-08-06,,,,,J1772,US,,,,Public,,public,,,,,,,,,,,,,,,,,,,,,,,,,,,,,false
ELEC,CARTA MEMORIAL HOSP,2525 Desales Ave.,,Chattanooga,TN,37406,,888-758-4389,E,,Public,24 hours daily,,,,,,2,,,ChargePoint Network,http://www.chargepoint.com/,GPS,35.043855,-85.260525,2023-10-23,77364,2023-10-23 00:12:58 UTC,,,,2016-08-06,,,,,J1772,US,,,,Public,,public,,,,,,,,,,,,,,,,,,,,,,,,,,,,,false
ELEC,CARTA CHATTANOOGA ZOO,301 North Holtzclaw,,Chattanooga,TN,37404,,888-758-4389,E,,Public,24 hours daily,,,,,,2,,,ChargePoint Network,http://www.chargepoint.com/,GPS,35.043794,-85.280574,2023-10-23,77365,2023-10-23 00:12:58 UTC,,,,2016-08-06,,,,,J1772,US,,,,Public,,public,,,,,,,,,,,,,,,,,,,,,,,,,,,,,false
ELEC,CARTA HAMILTON MALL,2120 Hamilton Pl Blvd,,Chattanooga,TN,37421,,888-758-4389,E,,Public,24 hours daily,,,,,,2,,,ChargePoint Network,http://www.chargepoint.com/,GPS,35.035694,-85.15777,2023-10-23,77366,2023-10-23 00:12:54 UTC,,,,2016-08-06,,,,,J1772,US,,,,Public,,public,,,,,,,,,,,,,,,,,,,,,,,,,,,,,false
ELEC,CARTA BETHLEHEM CNTR,200 West 38th Street,,Chattanooga,TN,37410,,888-758-4389,E,,Public,24 hours daily,,,,,,2,,,ChargePoint Network,http://www.chargepoint.com/,GPS,35.005733,-85.311911,2023-10-23,77367,2023-10-23 00:12:53 UTC,,,,2016-08-06,,,,,J1772,US,,,,Public,,public,,,,,,,,,,,,,,,,,,,,,,,,,,,,,false
CNG,Knoxville Utilities Board,1820 3rd Creek Rd,,Knoxville,TN,37921,,,E,,Public - Credit card at all times,24 hours daily,D M V Voyager,,Q,3600,,,,,,,200-8,35.966518,-83.991825,2023-09-14,78289,2023-09-14 14:01:49 UTC,T,,,2017-01-13,,HD,,,,US,,,,Public - Carte de crédit en tout temps,,public,CREDIT_CARD_ALWAYS,,STANDALONE_STATION,4,,,,,,,,,,,Q,3600,HD,,,false,,,,,,false,,HD,
ELEC,University of Tennessee - 11th Street Parking Garage,1101 Cumberland Ave,Top level,Knoxville,TN,37916,,865-974-6031,E,,Public,24 hours daily; parking permit required,,,,,,2,1,,Non-Networked,,200-9,35.95953,-83.924911,2021-10-12,78292,2022-02-10 19:42:29 UTC,P,,,2015-10-01,,,,,CHADEMO J1772,US,,,,Public,,public,,,COLLEGE_CAMPUS,,,,,,,Free,,,,,,,,,SOLAR,true,,,,,,,,LD,false
ELEC,University of Tennessee - Staff Area 23,1350 Pat Head Summitt St,,Knoxville,TN,37916,,865-974-6031,E,,Public,24 hours daily; parking permit required,,,,,,6,,,Non-Networked,,GPS,35.951858,-83.9316,2021-10-12,78293,2022-02-10 19:42:29 UTC,P,,,2015-10-01,,,,,J1772,US,,,,Public,,public,,,COLLEGE_CAMPUS,,,,,,,Free,,,,,,,,,SOLAR,true,,,,,,,,LD,false
ELEC,University of Tennessee - Agriculture Campus,2402 Chapman Dr,,Knoxville,TN,37916,,865-974-6031,E,,Public,24 hours daily; parking permit required,,,,,,6,,,Non-Networked,,GPS,35.946202,-83.93878,2021-10-12,78294,2022-02-10 19:42:29 UTC,P,,,2015-10-01,,,,,J1772,US,,,,Public,,public,,,COLLEGE_CAMPUS,,,,,,,Free,,,,,,,,,SOLAR,true,,,,,,,,LD,false
ELEC,CARTA AIRPORT LOT2 #3,1001 Airport Rd,,Chattanooga,TN,37421,,888-758-4389,E,,Public,24 hours daily,,,,,,2,,,ChargePoint Network,http://www.chargepoint.com/,GPS,35.038042,-85.195795,2023-10-23,78354,2023-10-23 00:13:42 UTC,,,,2016-09-08,,,,,J1772,US,,,,Public,,public,,,,,,,,,,,,,,,,,,,,,,,,,,,,,false
ELEC,CARTA SAU 4,Hickman Drive,,Collegedale,TN,37363,,888-758-4389,E,,Public,24 hours daily,,,,,,2,,,ChargePoint Network,http://www.chargepoint.com/,GPS,35.050309,-85.050405,2023-10-23,78399,2023-10-23 00:19:33 UTC,,,,2016-09-10,,,,,J1772,US,,,,Public,,public,,,,,,,,,,,,,,,,,,,,,,,,,,,,,false
ELEC,SEVENSPRINGS 7SPRINGS_3,320 Seven Springs Way,,Brentwood,TN,37027,,888-758-4389,E,,Public,24 hours daily,,,,,,2,,,ChargePoint Network,http://www.chargepoint.com/,GPS,36.041618,-86.770424,2023-10-23,78943,2023-10-23 00:13:32 UTC,,,,2016-10-12,,,,,J1772,US,,,,Public,,public,,,,,,,,,,,,,,,,,,,,,,,,,,,,,false
ELEC,BNA EXPRESS STATION 01,115 Knapp Blvd,,Nashville,TN,37217,,888-758-4389,E,,Public,24 hours daily,,,,,,2,,,ChargePoint Network,http://www.chargepoint.com/,GPS,36.110741,-86.672007,2023-10-23,79332,2023-10-23 00:12:52 UTC,,,,2016-10-29,,,,,J1772,US,,,,Public,,public,,,,,,,,,,,,,,,,,,,,,,,,,,,,,false
E85,Speedway #7173,108 Battalion Blvd,,Murfreesboro,TN,37128,,615-217-3134,E,,Public,24 hours daily,A Cash D M V Voyager Wright_Exp,,,,,,,,,,GPS,35.84364739757036,-86.47039264440536,2023-08-10,80162,2023-08-10 16:58:49 UTC,P,,,2016-12-15,,,,false,,US,,,,Public,,public,,,CONVENIENCE_STORE,,,,,,,,,,,,,,,,,false,,,,,,,,MD,
ELEC,CARTA ST ELMO #1,3001-3099 St Elmo Ave,,Chattanooga,TN,37408,,888-758-4389,E,,Public,24 hours daily,,,,,,2,,,ChargePoint Network,http://www.chargepoint.com/,GPS,35.021658,-85.321318,2023-10-23,80496,2023-10-23 00:15:45 UTC,,,,2017-01-05,,,,,J1772,US,,,,Public,,public,,,,,,,,,,,,,,,,,,,,,,,,,,,,,false
ELEC,CARTA 548 VINE ST #2,548 Vine St,,Chattanooga,TN,37403,,888-758-4389,E,,Public,24 hours daily,,,,,,2,,,ChargePoint Network,http://www.chargepoint.com/,GPS,35.048058,-85.300749,2023-10-23,80499,2023-10-23 00:15:13 UTC,,,,2017-01-05,,,,,J1772,US,,,,Public,,public,,,,,,,,,,,,,,,,,,,,,,,,,,,,,false
ELEC,CARTA MLK,527 E M L King Blvd,,Chattanooga,TN,37403,,888-758-4389,E,,Public,24 hours daily,,,,,,2,,,ChargePoint Network,http://www.chargepoint.com/,GPS,35.043428,-85.301786,2023-10-23,80500,2023-10-23 00:14:49 UTC,,,,2017-01-05,,,,,J1772,US,,,,Public,,public,,,,,,,,,,,,,,,,,,,,,,,,,,,,,false
ELEC,CARTA W11TH ST @BROAD,1-99 W 11th St,,Chattanooga,TN,37402,,888-758-4389,E,,Public,24 hours daily,,,,,,2,,,ChargePoint Network,http://www.chargepoint.com/,GPS,35.04403,-85.310026,2023-10-23,80504,2023-10-23 00:15:45 UTC,,,,2017-01-05,,,,,J1772,US,,,,Public,,public,,,,,,,,,,,,,,,,,,,,,,,,,,,,,false
ELEC,INTOWN SUITES SMYRNA,10700-10798 Cedar Grove Rd,,Smyrna,TN,37167,,888-758-4389,E,,Public,24 hours daily,,,,,,2,,,ChargePoint Network,http://www.chargepoint.com/,GPS,35.97745,-86.560795,2023-10-23,85392,2023-10-23 00:15:37 UTC,,,,2017-06-02,,,,,J1772,US,,,,Public,,public,,,,,,,,,,,,,,,,,,,,,,,,,,,,,false
E85,Speedway #7103,1609 N Locust Ave,,Lawrenceburg,TN,38464,,931-762-2768,E,,Public,24 hours daily,A Cash CREDIT D Debit M V Voyager Wright_Exp,,,,,,,,,,200-8,35.260527,-87.32425,2023-08-10,85721,2023-08-10 16:58:49 UTC,P,,,2017-06-15,,,,false,,US,,,,Public,,public,,,CONVENIENCE_STORE,,,,,,,,,,,,,,,,,false,,,,,,,,MD,
E85,Speedway #7180,1200 Memorial Blvd,,Springfield,TN,37172,,615-382-0682,E,,Public,24 hours daily,A Cash D Debit M V Voyager Wright_Exp,,,,,,,,,,200-9,36.501553,-86.881247,2023-08-10,85722,2023-08-10 16:58:49 UTC,P,,,2017-06-15,,,,false,,US,,,,Public,,public,,,CONVENIENCE_STORE,,,,,,,,,,,,,,,,,false,,,,,,,,MD,
ELEC,CARTA MAI BELL APT,601-699 S Hawthorne St,,Chattanooga,TN,37404,,888-758-4389,E,,Public,24 hours daily,,,,,,2,,,ChargePoint Network,http://www.chargepoint.com/,GPS,35.033667,-85.277644,2023-10-23,85877,2023-10-23 00:12:58 UTC,,,,2017-07-12,,,,,J1772,US,,,,Public,,public,,,,,,,,,,,,,,,,,,,,,,,,,,,,,false
ELEC,BMW NASHVILLE STATION 5,1568 Mallory Ln,,Brentwood,TN,37027,,888-758-4389,E,,Public,24 hours daily,,,,,,2,,,ChargePoint Network,http://www.chargepoint.com/,GPS,35.979926,-86.804875,2023-10-23,87676,2023-10-23 00:18:09 UTC,,,,2017-09-16,,,,,J1772,US,,,,Public,,public,,,,,,,,,,,,,,,,,,,,,,,,,,,,,false
E85,Speedway #7104,1203 McArthur St,,Manchester,TN,37355,,931-723-2556,E,,Public,24 hours daily,A Cash D Debit M V,,,,,,,,,,200-9,35.464646,-86.08554,2023-08-10,88738,2023-08-10 16:58:49 UTC,P,,,2017-12-15,,,,false,,US,,,,Public,,public,,,CONVENIENCE_STORE,,,,,,,,,,,,,,,,,false,,,,,,,,MD,
ELEC,CARTA 8007 VOLKSWAGEN,8007 Volkswagen Dr,,Chattanooga,TN,37421,,888-758-4389,E,,Public,24 hours daily,,,,,,2,,,ChargePoint Network,http://www.chargepoint.com/,GPS,35.072113,-85.131349,2023-10-23,89771,2023-10-23 00:16:50 UTC,,,,2017-12-21,,,,,J1772,US,,,,Public,,public,,,,,,,,,,,,,,,,,,,,,,,,,,,,,false
ELEC,CARTA 7380 TN 317,7380 TN-317,,Chattanooga,TN,37421,,888-758-4389,E,,Public,24 hours daily,,,,,,2,,,ChargePoint Network,http://www.chargepoint.com/,GPS,35.070661,-85.133595,2023-10-23,89772,2023-10-23 00:16:50 UTC,,,,2017-12-21,,,,,J1772,US,,,,Public,,public,,,,,,,,,,,,,,,,,,,,,,,,,,,,,false
E85,Speedway #7111,15852 Highway 13 S,,Hurricane Mills,TN,37078,,931-296-9008,E,,Public,24 hours daily,A Cash D Debit M V,,,,,,,,,,200-9,35.877598,-87.801972,2023-08-10,92081,2023-08-10 16:58:49 UTC,P,,,2018-02-15,,,,false,,US,,,,Public,,public,,,CONVENIENCE_STORE,,,,,,,,,,,,,,,,,false,,,,,,,,MD,
E85,Speedway #7118,1261 S Lowry St,,Smyrna,TN,37167,,615-220-1159,E,,Public,24 hours daily,A Cash D Debit M V,,,,,,,,,,200-9,35.948954,-86.488096,2023-08-10,92082,2023-08-10 16:58:49 UTC,P,,,2018-02-15,,,,false,,US,,,,Public,,public,,,CONVENIENCE_STORE,,,,,,,,,,,,,,,,,false,,,,,,,,MD,
E85,Speedway #7140,610 N Cumberland St,,Lebanon,TN,37087,,615-449-0140,E,,Public,24 hours daily,A Cash D Debit M V,,,,,,,,,,200-9,36.215284,-86.290243,2023-08-10,92083,2023-08-10 16:58:49 UTC,P,,,2018-02-15,,,,false,,US,,,,Public,,public,,,CONVENIENCE_STORE,,,,,,,,,,,,,,,,,false,,,,,,,,MD,
ELEC,Brookview Promenade,265 Brookview Centre Way,,Knoxville,TN,37919,,888-998-2546,E,,Public,24 hours daily,,,,,,4,,,Blink Network,http://www.blinkcharging.com/,GPS,35.935669,-84.005456,2023-10-22,95183,2023-10-22 23:57:21 UTC,,,,2012-03-01,,,,,J1772,US,,,,Public,,public,,,,,,,,,,Free,,,,,,,,,,,,,,,,,,,false
ELEC,Henderson Hutcherson and McCullough,1200 Market St,,Chattanooga,TN,37402,,888-998-2546,E,,Public,24 hours daily,,,,,,1,,,Blink Network,http://www.blinkcharging.com/,GPS,35.0421861,-85.308904,2023-10-22,95190,2023-10-22 23:57:22 UTC,,,,2012-01-15,,,,,J1772,US,,,,Public,,public,,,,,,,,,,Free,,,,,,,,,,,,,,,,,,,false
ELEC,Titanic Pigeon Forge,2134 Parkway,,Pigeon Forge,TN,37863,,888-998-2546,E,,Public,24 hours daily,,,,,,2,,,Blink Network,http://www.blinkcharging.com/,GPS,35.821406,-83.578337,2023-10-22,95203,2023-10-22 23:57:22 UTC,,,,2012-01-15,,,,,J1772,US,,,,Public,,public,,,,,,,,,,Free,,,,,,,,,,,,,,,,,,,false
ELEC,Loews Vanderbilt Hotel,2100 West End Avenue,Paid Parking Garage||,Nashville,TN,37203,,888-998-2546,E,,Public,24 hours daily,,,,,,4,,,Blink Network,http://www.blinkcharging.com/,GPS,36.150544,-86.802403,2023-10-23,95221,2023-10-23 00:00:05 UTC,,,,2011-12-31,,,,,J1772,US,,,,Public,,public,,,,,,,,,,Free,,,,,,,,,,,,,,,,,,,false
ELEC,City of Franklin - 2nd Ave,109 2nd Ave South,,Franklin,TN,37064,,888-998-2546,E,,Public,24 hours daily,,,,,,2,,,Blink Network,http://www.blinkcharging.com/,GPS,35.9256575,-86.8674099,2023-10-23,95453,2023-10-23 00:00:07 UTC,,,,2012-03-01,,,,,J1772,US,,,,Public,,public,,,,,,,,,,Free,,,,,,,,,,,,,,,,,,,false
ELEC,City of Franklin - 4th Ave,115 4th Avenue South,,Franklin,TN,37064,,888-998-2546,E,,Public,24 hours daily,,,,,,2,,,Blink Network,http://www.blinkcharging.com/,GPS,35.9241797,-86.8699657,2023-10-23,95454,2023-10-23 00:00:07 UTC,,,,2012-03-01,,,,,J1772,US,,,,Public,,public,,,,,,,,,,Free,,,,,,,,,,,,,,,,,,,false
ELEC,Midtown Cafe,102 19th Avenue S,,Nashville,TN,37203,,888-998-2546,E,,Public,24 hours daily,,,,,,2,,,Blink Network,http://www.blinkcharging.com/,GPS,36.151923,-86.79686,2023-10-23,95484,2023-10-23 00:03:08 UTC,,,,2014-02-22,,,,,J1772,US,,,,Public,,public,,,,,,,,,,Free,,,,,,,,,,,,,,,,,,,false
ELEC,Integra Hills Preserve,9100 Integra Preserve Court,,Ooltewah,TN,37363,,888-998-2546,E,,Public,24 hours daily,,,,,,2,,,Blink Network,http://www.blinkcharging.com/,GPS,35.0663,-85.0745,2023-10-22,95497,2023-10-22 23:58:30 UTC,,,,2016-03-08,,,,,J1772,US,,,,Public,,public,,,,,,,,,,Free,,,,,,,,,,,,,,,,,,,false
ELEC,Commodore Hotel Linden,114 E. Main Street,,Linden,TN,37096,,888-998-2546,E,,Public,24 hours daily,,,,,,2,,,Blink Network,http://www.blinkcharging.com/,GPS,35.616609,-87.838277,2023-10-22,95649,2023-10-22 23:57:55 UTC,,,,2012-03-01,,,,,J1772,US,,,,Public,,public,,,,,,,,,,Free,,,,,,,,,,,,,,,,,,,false
ELEC,Pellissippi State (Magnolia Ave),1610 E Magnolia Ave,,Knoxville,TN,37917,,888-998-2546,E,,Public,24 hours daily,,,,,,2,,,Blink Network,http://www.blinkcharging.com/,GPS,35.977993,-83.907603,2023-10-23,95772,2023-10-23 00:00:44 UTC,,,,2011-09-01,,,,,J1772,US,,,,Public,,public,,,,,,,,,,Free,,,,,,,,,,,,,,,,,,,false
ELEC,Pellissippi State,10915 Hardin Valley Road,,Knoxville,TN,37932,,888-998-2546,E,,Public,24 hours daily,,,,,,2,,,Blink Network,http://www.blinkcharging.com/,GPS,35.94657,-84.164617,2023-10-23,95978,2023-10-23 00:00:07 UTC,,,,2011-08-10,,,,,J1772,US,,,,Public,,public,,,,,,,,,,Free,,,,,,,,,,,,,,,,,,,false
ELEC,Pellissippi State (Blount County Campus),2731 W. Lamar Alexander Hwy,Charger #147 under repair.||,Friendsville,TN,37737,,888-998-2546,E,,Public,24 hours daily,,,,,,2,,,Blink Network,http://www.blinkcharging.com/,GPS,35.755076,-84.072247,2023-10-23,96093,2023-10-23 00:02:35 UTC,,,,2012-05-31,,,,,J1772,US,,,,Public,,public,,,,,,,,,,Free,,,,,,,,,,,,,,,,,,,false
ELEC,Fairfield Inn & Suites Kodak,3620 Outdoor Sportsman Place,,Kodak,TN,37764,,888-998-2546,E,,Public,24 hours daily,,,,,,1,,,Blink Network,http://www.blinkcharging.com/,GPS,35.985804,-83.610977,2023-10-22,96156,2023-10-22 23:57:23 UTC,,,,2015-11-13,,,,,J1772,US,,,,Public,,public,,,,,,,,,,Free,,,,,,,,,,,,,,,,,,,false
ELEC,Cross Park Realty Partners LLC,9111 Cross Park Dr,.||,Knoxville,TN,37923,,888-998-2546,E,,Public,24 hours daily,,,,,,6,,,Blink Network,http://www.blinkcharging.com/,GPS,35.92301,-84.08731,2023-10-22,96322,2023-10-22 23:57:55 UTC,,,,2012-03-01,,,,,J1772,US,,,,Public,,public,,,,,,,,,,Free,,,,,,,,,,,,,,,,,,,false
ELEC,Criminal Justice Center,245 Washington Ave,"Paid Parking - Garage for Jury Duty and ||Court visits, located on the first ||floor, midway on the left.||",Memphis,TN,38103,,888-998-2546,E,,Public,24 hours daily,,,,,,4,,,Blink Network,http://www.blinkcharging.com/,GPS,35.147539,-90.046249,2023-10-23,96344,2023-10-23 00:04:28 UTC,,,,2016-09-26,,,,,J1772,US,,,,Public,,public,,,,,,,,,,Free,,,,,,,,,,,,,,,,,,,false
ELEC,Hilton Garden Inn Chattanooga,2343 Shallowford Village Dr.,,Chattanooga,TN,37421,,888-998-2546,E,,Public,24 hours daily,,,,,,2,,,Blink Network,http://www.blinkcharging.com/,GPS,35.045076,-85.156036,2023-10-23,96356,2023-10-23 00:03:43 UTC,,,,2011-07-26,,,,,J1772,US,,,,Public,,public,,,,,,,,,,Free,,,,,,,,,,,,,,,,,,,false
ELEC,Maury Regional Medical Center,1224 Trotwood Ave,,Columbia,TN,38401,,888-998-2546,E,,Public,24 hours daily,,,,,,1,,,Blink Network,http://www.blinkcharging.com/,GPS,35.606597,-87.067605,2023-10-23,96368,2023-10-23 00:03:43 UTC,,,,2012-01-15,,,,,J1772,US,,,,Public,,public,,,,,,,,,,Free,,,,,,,,,,,,,,,,,,,false
ELEC,Three Rivers Market,1100 N Central Street,,Knoxville,TN,37917,,888-998-2546,E,,Public,24 hours daily,,,,,,2,,,Blink Network,http://www.blinkcharging.com/,GPS,35.981352,-83.928208,2023-10-23,96371,2023-10-23 00:04:27 UTC,,,,2012-03-01,,,,,J1772,US,,,,Public,,public,,,,,,,,,,Free,,,,,,,,,,,,,,,,,,,false
ELEC,Shoppers Garage,85 N Front St,Chargers under repair.||,Memphis,TN,38103,,888-998-2546,E,,Public,24 hours daily,,,,,,2,,,Blink Network,http://www.blinkcharging.com/,GPS,35.147834,-90.0532075,2023-10-23,96459,2023-10-23 00:02:35 UTC,,,,2012-09-30,,,,,J1772,US,,,,Public,,public,,,,,,,,,,Free,,,,,,,,,,,,,,,,,,,false
ELEC,Springhill Suites Pigeon Forge,120 Christmas Tree Lane,,Pigeon Forge,TN,37863,,888-998-2546,E,,Public,24 hours daily,,,,,,1,,,Blink Network,http://www.blinkcharging.com/,GPS,35.808857,-83.575849,2023-10-22,96527,2023-10-22 23:57:23 UTC,,,,2014-11-06,,,,,J1772,US,,,,Public,,public,,,,,,,,,,Free,,,,,,,,,,,,,,,,,,,false
ELEC,Holiday Inn Express Alcoa,130 Associates Blvd,,Alcoa,TN,37701,,888-998-2546,E,,Public,24 hours daily,,,,,,1,,,Blink Network,http://www.blinkcharging.com/,GPS,35.783947,-83.988546,2023-10-22,96528,2023-10-22 23:57:23 UTC,,,,2014-12-13,,,,,J1772,US,,,,Public,,public,,,,,,,,,,Free,,,,,,,,,,,,,,,,,,,false
ELEC,La Quinta Alcoa,126 Cusick Rd,,Alcoa,TN,37701,,888-998-2546,E,,Public,24 hours daily,,,,,,1,,,Blink Network,http://www.blinkcharging.com/,GPS,35.811537,-83.982389,2023-10-22,96531,2023-10-22 23:57:23 UTC,,,,2014-12-13,,,,,J1772,US,,,,Public,,public,,,,,,,,,,Free,,,,,,,,,,,,,,,,,,,false
ELEC,Holiday Inn Cedar Bluff,9134 Executive Park Drive,,Knoxville,TN,37923,,888-998-2546,E,,Public,24 hours daily,,,,,,1,,,Blink Network,http://www.blinkcharging.com/,GPS,35.919789,-84.088552,2023-10-22,96532,2023-10-22 23:57:23 UTC,,,,2014-11-20,,,,,J1772,US,,,,Public,,public,,,,,,,,,,Free,,,,,,,,,,,,,,,,,,,false
ELEC,Holiday Inn Express Kodak,3526 Outdoor World Drive,,Kodak,TN,37764,,888-998-2546,E,,Public,24 hours daily,,,,,,1,,,Blink Network,http://www.blinkcharging.com/,GPS,35.984378,-83.613235,2023-10-22,96533,2023-10-22 23:57:23 UTC,,,,2014-11-07,,,,,J1772,US,,,,Public,,public,,,,,,,,,,Free,,,,,,,,,,,,,,,,,,,false
ELEC,Integra Hills (Location 1),9198 Integra Hills Lane,,Ooltewah,TN,37363,,888-998-2546,E,,Public,24 hours daily,,,,,,2,,,Blink Network,http://www.blinkcharging.com/,GPS,35.066943,-85.074911,2023-10-22,100238,2023-10-22 23:59:04 UTC,,,,2018-08-08,,,,,J1772,US,,,,Public,,public,,,,,,,,,,Free,,,,,,,,,,,,,,,,,,,false
ELEC,Integra Hills (Location 2),9198 Integra Hills Lane,,Ooltewah,TN,37363,,888-998-2546,E,,Public,24 hours daily,,,,,,2,,,Blink Network,http://www.blinkcharging.com/,GPS,35.068252,-85.073931,2023-10-22,100239,2023-10-22 23:59:04 UTC,,,,2018-08-08,,,,,J1772,US,,,,Public,,public,,,,,,,,,,Free,,,,,,,,,,,,,,,,,,,false
ELEC,McMinnville Electric System - Main Building,200 W Morford St,,McMinnville,TN,37110,,931-473-3144,E,,Public,24 hours daily,,,,,,1,,,Non-Networked,,200-9,35.682623,-85.774901,2021-01-14,100324,2023-09-25 14:15:45 UTC,T,,,2018-03-01,,,,,J1772,US,,,,Public,,public,,,UTILITY,,,,,,,Free,,,,,,,,,,false,,,,,,,,,false
ELEC,The Pinnacle - Tesla Supercharger,416 Pinnacle Parkway,,Bristol,TN,37620,,877-798-3752,E,,Public,24 hours daily,,,,,,,8,,Tesla,https://www.tesla.com/supercharger,200-8,36.59171,-82.261227,2023-07-01,102414,2023-07-14 19:41:28 UTC,P,,,2017-09-01,,,,,TESLA,US,,,,Public,,public,,,,,,,,,,,,,,,,,,,,,,,,,,,,,false
ELEC,Chattanooga Airport (CHA) - Tesla Supercharger,1001 Airport Road,,Chattanooga,TN,37421,,877-798-3752,E,,Public,24 hours daily,,,,,,,6,,Tesla,https://www.tesla.com/supercharger,200-8,35.038644,-85.19593,2023-07-01,102415,2023-07-14 19:41:28 UTC,P,,,2014-09-01,,,,,TESLA,US,,,,Public,,public,,,,,,,,,,,,,,,,,,,,,,,,,,,,,false
ELEC,Jackson Plaza - Tesla Supercharger,377 West Jackson Street,,Cookeville,TN,38501,,877-798-3752,E,,Public,24 hours daily,,,,,,,8,,Tesla,https://www.tesla.com/supercharger,200-9,36.155817,-85.515186,2023-07-01,102416,2023-07-14 19:41:28 UTC,P,,,2018-07-23,,,,,TESLA,US,,,,Public,,public,,,,,,,,,,,,,,,,,,,,,,,,,,,,,false
ELEC,Holiday Inn Express & Suites - Tesla Supercharger,100 Barzani Blvd,,Dickson,TN,37055,,877-798-3752,E,,Public,24 hours daily,,,,,,,8,,Tesla,https://www.tesla.com/supercharger,200-8,36.018436,-87.333018,2023-07-01,102417,2023-07-14 19:41:28 UTC,P,,,2018-07-23,,,,,TESLA,US,,,,Public,,public,,,,,,,,,,,,,,,,,,,,,,,,,,,,,false
ELEC,Casey Jones Village - Tesla Supercharger,56 Casey Jones Lane,,Jackson,TN,38305,,877-798-3752,E,,Public,24 hours daily,,,,,,,8,,Tesla,https://www.tesla.com/supercharger,200-9,35.66042,-88.855619,2023-07-01,102418,2023-07-14 19:41:28 UTC,P,,,2016-12-01,,,,,TESLA,US,,,,Public,,public,,,,,,,,,,,,,,,,,,,,,,,,,,,,,false
ELEC,Pavilion of Turkey Creek - Tesla Supercharger,10936 Parkside Dr,,Knoxville,TN,37934,,877-798-3752,E,,Public,24 hours daily,,,,,,,8,,Tesla,https://www.tesla.com/supercharger,200-8,35.901319,-84.149634,2023-07-01,102419,2023-07-14 19:41:28 UTC,P,,,2015-04-01,,,,,TESLA,US,,,,Public,,public,,,,,,,,,,,,,,,,,,,,,,,,,,,,,false
ELEC,Dunkin Donuts - Tesla Supercharger,2224 Hillsboro Blvd.,,Manchester,TN,37355,,877-798-3752,E,,Public,24 hours daily,,,,,,,10,,Tesla,https://www.tesla.com/supercharger,200-9,35.458629,-86.057393,2023-07-01,102420,2023-07-14 19:41:28 UTC,P,,,2018-07-23,,,,,TESLA,US,,,,Public,,public,,,,,,,,,,,,,,,,,,,,,,,,,,,,,false
ELEC,Park Place Centre - Tesla Supercharger,6073 Park Avenue,,Memphis,TN,38119,,877-798-3752,E,,Public,24 hours daily,,,,,,,8,,Tesla,https://www.tesla.com/supercharger,200-8,35.097801,-89.858957,2023-07-01,102421,2023-07-14 19:41:28 UTC,P,,,2016-12-01,,,,,TESLA,US,,,,Public,,public,,,,,,,,,,,,,,,,,,,,,,,,,,,,,false
ELEC,JLR NASHVILLE STATION1,3 Cadillac Dr,,Brentwood,TN,37027,,888-758-4389,E,,Public,24 hours daily,,,,,,2,,,ChargePoint Network,http://www.chargepoint.com/,GPS,36.03643,-86.797484,2023-10-23,103077,2023-10-23 00:20:28 UTC,,,,2018-09-20,,,,,J1772,US,,,,Public,,public,,,,,,,,,,,,,,,,,,,,,,,,,,,,,false
ELEC,McGhee Tyson Airport,2055 Alcoa Hwy,Located on the first level of the short term parking garage,Alcoa,TN,37701,,865-970-2749,E,,Public,24 hours daily; pay parking lot,,,,,,2,,,Non-Networked,,GPS,35.80497669596536,-83.98941890744015,2023-09-14,104586,2023-09-14 14:01:49 UTC,P,,,2014-01-01,,,,,J1772,US,,,,Public,,public,,,AIRPORT,,,,,,,Free,,,,,,,,,,false,,,,,,,,LD,false
ELEC,Cumberland Plaza Garage,133 Commerce St,,Clarksville,TN,37040,,931-553-2436,E,,Public,24 hours daily,,,,,,1,,,Non-Networked,,200-8,36.525861,-87.361493,2022-11-10,104591,2023-02-14 15:54:11 UTC,LG,,,2017-01-01,,,,,J1772,US,,,,Public,,public,,,PARKING_GARAGE,,,,,,,,,,,,,,,,,false,,,,,,,,LD,false
ELEC,Dickson Electric System,236 Cowan Rd,,Dickson,TN,37055,,615-446-9051,E,,Public,24 hours daily,,,,,,1,,,Non-Networked,,200-8,36.065339,-87.386541,2023-09-14,104592,2023-09-14 14:01:49 UTC,T,,,2016-05-01,,,,,J1772,US,,,,Public,,public,,,UTILITY,,,,,,,,,,,,,,,,,false,,,,,,,,LD,false
ELEC,Ford Lincoln of Franklin,1129 Murfreesboro Rd,,Franklin,TN,37064,,615-823-7196,E,,Public - Call ahead,Dealership business hours,,,,,,1,,,Non-Networked,,200-9,35.918324,-86.833177,2023-09-14,104593,2023-09-14 14:01:49 UTC,P,,,2014-01-01,,,,,J1772,US,,,,Public - Appeler à l'avance,,public,CALL,,CAR_DEALER,,,,,,,Free,,,,,,,,,,false,,,,,,,,LD,false
ELEC,McEwen Building,1550 W McEwen Dr,,Franklin,TN,37067,,615-970-3536,E,,Public,24 hours daily,,,,,,1,,,Non-Networked,,200-9,35.936008,-86.827124,2023-01-10,104594,2023-02-14 15:54:11 UTC,P,,,2015-01-01,,,,,J1772,US,,,,Public,,public,,,OFFICE_BLDG,,,,,,,,,,,,,,,,,false,,,,,,,,LD,false
ELEC,Whole Foods Market,7825 US-72,,Germantown,TN,38138,,901-896-3245,E,,Public,24 hours daily,,,,,,1,,,Non-Networked,,GPS,35.08896,-89.80219,2023-09-14,104595,2023-09-14 14:01:49 UTC,P,,,2015-08-01,,,,,J1772,US,,,,Public,,public,,,GROCERY,,,,,,,Free,,,,,,,,,,false,,,,,,,,LD,false
ELEC,Brown Squirrel Furniture,9901 Sherrill Blvd,,Knoxville,TN,37932,,865-693-1291,E,,Public,"10am-8pm M-Sat, 1pm-6pm Sun; for customer use only",,,,,,2,,,Non-Networked,,GPS,35.914452,-84.112427,2023-09-14,104596,2023-09-14 14:01:49 UTC,P,,,2015-01-01,,,,,J1772,US,,,,Public,,public,,,SHOPPING_CENTER,,,,,,,Free,,,,,,,,,,true,,,,,,,,LD,false
ELEC,Whole Foods Market,6730 Paper Mill Dr,,Knoxville,TN,37919,,865-291-6400,E,,Public,8am-9pm daily,,,,,,1,,,Non-Networked,,GPS,35.933079,-84.015922,2023-09-14,104599,2023-09-14 14:01:49 UTC,P,,,2015-01-01,,,,,J1772,US,,,,Public,,public,,,GROCERY,,,,,,,Free,,,,,,,,,,false,,,,,,,,LD,false
ELEC,Melton Hill Dam - Overlook Parking Area,1824 Woodlawn Rd,,Lenoir City,TN,37771,,800-882-5263,E,,Public,Park hours,,,,,,2,,,Non-Networked,,GPS,35.88315568187158,-84.3025944761963,2021-09-10,104600,2022-02-10 19:42:29 UTC,P,,,2014-01-01,,,,,J1772,US,,,,Public,,public,,,PARKING_LOT,,,,,,,,,,,,,,,,,false,,,,,,,,LD,false
ELEC,Melton Hill Dam - Tailwater Parking Area,2015 Grubb Rd,,Lenoir City,TN,37771,,865-632-2264,E,,Public,Park hours,,,,,,2,,,Non-Networked,,GPS,35.88578498239254,-84.30361850268554,2021-09-10,104601,2023-08-31 14:25:46 UTC,P,,,2014-01-01,,,,,J1772,US,,,,Public,,public,,,PARKING_LOT,,,,,,,Free,,,,,,,,,,false,,,,,,,,LD,false
ELEC,Ingles Market,404 US-321,,Lenoir City,TN,37771,,865-988-5902,E,,Public,24 hours daily,,,,,,2,,,Non-Networked,,200-9,35.802582,-84.262589,2023-01-10,104602,2023-02-14 15:54:11 UTC,P,,,2017-01-01,,,,,J1772,US,,,,Public,,public,,,GROCERY,,,,,,,Free,,,,,,,,,,false,,,,,,,,LD,false
ELEC,Memphis International Airport,2491 Winchester Rd,Located on level 5 of Economy Parking,Memphis,TN,38116,,901-922-8065,E,,Public,24 hours daily,,,,,,10,,,Non-Networked,,GPS,35.0488029503098,-89.98090376322938,2021-09-10,104603,2023-08-24 19:57:50 UTC,P,,,2014-01-01,,,,,J1772,US,,,,Public,,public,,,PARKING_GARAGE,,,,,,,Parking fee,,,,,,,,,,false,,,,,,,,LD,false
ELEC,Chamber of Commerce,3050 Medical Center Pkwy,,Murfreesboro,TN,37129,,615-893-6565,E,,Public,24 hours daily,,,,,,2,,,Non-Networked,,200-9,35.866934,-86.449001,2023-09-14,104604,2023-09-14 14:01:49 UTC,LG,,,2011-01-01,,,,,J1772,US,,,,Public,,public,,,MUNI_GOV,,,,,,,Free,,,,,,,,,,false,,,,,,,,LD,false
ELEC,CARTA CHATTANOOGA COL,4501 Amnicola Hwy,,Chattanooga,TN,37406,,888-758-4389,E,,Public,24 hours daily,,,,,,2,,,ChargePoint Network,http://www.chargepoint.com/,GPS,35.102057,-85.235075,2023-10-23,104917,2023-10-23 00:11:49 UTC,,,,2018-11-24,,,,,J1772,US,,,,Public,,public,,,,,,,,,,,,,,,,,,,,,,,,,,,,,false
ELEC,GARAGE 2 MNAA PARK GA 2,2 Terminal Dr,,Nashville,TN,37214,,888-758-4389,E,,Public,24 hours daily,,,,,,2,,,ChargePoint Network,http://www.chargepoint.com/,GPS,36.130669,-86.667492,2023-10-23,105377,2023-10-23 00:23:36 UTC,,,,2018-12-19,,,,,J1772,US,,,,Public,,public,,,,,,,,,,,,,,,,,,,,,,,,,,,,,false
ELEC,Holiday Inn Express & Suites Nashville SE Antioch - Tesla Destination,201 Crossings Pl,,Antioch,TN,37013,,615-731-2361  877-798-3752,E,,Public,,,,,,,8,,,Tesla Destination,https://www.tesla.com/destination-charging,200-9,36.0439915,-86.6480986,2022-10-06,115575,2023-01-18 15:15:20 UTC,P,,,2017-11-29,,,,,J1772 TESLA,US,,,,Public,,public,,,HOTEL,,,,,,,Free,,,,,,,,,,,,,,,,,,,false
ELEC,Hampton Inn Nashville-I-24 Hickory Hollow - Tesla Destination,210 Crossings Pl,,Antioch,TN,37013,,615-731-9911  877-798-3752,E,,Public,,,,,,,5,,,Tesla Destination,https://www.tesla.com/destination-charging,200-8,36.0448739,-86.6479546,2022-10-06,115576,2023-01-18 15:15:20 UTC,P,,,2017-10-05,,,,,J1772 TESLA,US,,,,Public,,public,,,HOTEL,,,,,,,Free,,,,,,,,,,,,,,,,,,,false
ELEC,DelMonaco Winery & Vineyards - Tesla Destination,600 Lance Dr,,Baxter,TN,38544,,931-858-1177  877-798-3752,E,,Public,,,,,,,3,,,Tesla Destination,https://www.tesla.com/destination-charging,200-9,36.163439,-85.615665,2022-10-06,115577,2023-01-18 15:15:20 UTC,P,,,2018-02-01,,,,,TESLA,US,,,,Public,,public,,,BREWERY_DISTILLERY_WINERY,,,,,,,Free,,,,,,,,,,,,,,,,,,,false
ELEC,Hampton Inn & Suites Chattanooga/ Downtown - Tesla Destination,400 Chestnut St,,Chattanooga,TN,37402,,423-693-0501  877-798-3752,E,,Public,,,,,,,3,,,Tesla Destination,https://www.tesla.com/destination-charging,200-9,35.0517332,-85.3113814,2022-10-06,115578,2023-01-18 15:15:20 UTC,P,,,2018-05-25,,,,,J1772 TESLA,US,,,,Public,,public,,,HOTEL,,,,,,,Free,,,,,,,,,,,,,,,,,,,false
ELEC,DoubleTree by Hilton Chattanooga Downtown - Tesla Destination,407 Chestnut St,,Chattanooga,TN,37402,,423-756-5150  877-798-3752,E,,Public,,,,,,,4,,,Tesla Destination,https://www.tesla.com/destination-charging,200-9,35.0512209,-85.3124976,2022-10-06,115579,2023-01-18 15:15:20 UTC,P,,,2018-03-26,,,,,J1772 TESLA,US,,,,Public,,public,,,HOTEL,,,,,,,Free,,,,,,,,,,,,,,,,,,,false
ELEC,Holiday Inn & Suites Chattanooga Downtown - Tesla Destination,434 Chestnut St,,Chattanooga,TN,37402,,423-777-5858  877-798-3752,E,,Public,,,,,,,3,,,Tesla Destination,https://www.tesla.com/destination-charging,200-9,35.051119,-85.311229,2022-10-06,115580,2023-01-18 15:15:20 UTC,P,,,2016-11-16,,,,,J1772 TESLA,US,,,,Public,,public,,,HOTEL,,,,,,,Free,,,,,,,,,,,,,,,,,,,false
ELEC,Home2 Suites by Hilton Clarksville/Ft. Campbell - Tesla Destination,"3020 Mr. ""C"" Dr",,Clarksville,TN,37040,,931-645-7771  877-798-3752,E,,Public,,,,,,,10,,,Tesla Destination,https://www.tesla.com/destination-charging,200-9,36.5930397,-87.2863968,2022-10-06,115581,2023-01-18 15:15:20 UTC,P,,,2017-10-02,,,,,J1772 TESLA,US,,,,Public,,public,,,HOTEL,,,,,,,Free,,,,,,,,,,,,,,,,,,,false
ELEC,Old Glory Distilling Co. - Tesla Destination,451 Alfred Thun Rd,,Clarksville,TN,37040,,931-919-2522  877-798-3752,E,,Public,,,,,,,2,,,Tesla Destination,https://www.tesla.com/destination-charging,200-9,36.596445,-87.277796,2022-10-06,115582,2023-01-18 15:15:20 UTC,P,,,2016-03-07,,,,,J1772 TESLA,US,,,,Public,,public,,,BREWERY_DISTILLERY_WINERY,,,,,,,Free,,,,,,,,,,,,,,,,,,,false
ELEC,Stonehaus Winery - Tesla Destination,2444 Genesis Rd,,Crossville,TN,38571,,931-484-8461  877-798-3752,E,,Public,,,,,,,2,,,Tesla Destination,https://www.tesla.com/destination-charging,200-9,35.985032,-85.010353,2022-10-06,115584,2023-01-18 15:15:20 UTC,P,,,2016-03-18,,,,,J1772 TESLA,US,,,,Public,,public,,,BREWERY_DISTILLERY_WINERY,,,,,,,Free,,,,,,,,,,,,,,,,,,,false
ELEC,Comfort Inn Dickson - Tesla Destination,1085 E Christi Dr,,Dickson,TN,37055,,615-740-1000  877-798-3752,E,,Public,,,,,,,10,,,Tesla Destination,https://www.tesla.com/destination-charging,200-9,36.0221579,-87.3347879,2022-10-06,115585,2023-01-18 15:15:20 UTC,P,,,2018-03-12,,,,,J1772 TESLA,US,,,,Public,,public,,,HOTEL,,,,,,,Free,,,,,,,,,,,,,,,,,,,false
ELEC,Home2 Suites by Hilton Nashville Franklin - Tesla Destination,107 International Dr,,Franklin,TN,37067,,615-771-8032  877-798-3752,E,,Public,,,,,,,8,,,Tesla Destination,https://www.tesla.com/destination-charging,200-9,35.9559429,-86.8054694,2022-10-06,115586,2023-01-18 15:15:20 UTC,P,,,2018-02-12,,,,,J1772 TESLA,US,,,,Public,,public,,,HOTEL,,,,,,,Free,,,,,,,,,,,,,,,,,,,false
ELEC,Hampton Inn & Suites Nashville/Franklin/Cool Springs - Tesla Destination,7141 South Springs Dr,,Franklin,TN,37067,,615-771-7225  877-798-3752,E,,Public,,,,,,,2,,,Tesla Destination,https://www.tesla.com/destination-charging,200-8,35.952404,-86.813731,2022-10-06,115587,2023-01-18 15:15:20 UTC,P,,,2016-11-03,,,,,TESLA,US,,,,Public,,public,,,HOTEL,,,,,,,Free,,,,,,,,,,,,,,,,,,,false
ELEC,Hilton Garden Inn Nashville Franklin/ Cool Springs - Tesla Destination,9150 Carothers Pkwy,,Franklin,TN,37067,,615-656-2700  877-798-3752,E,,Public,,,,,,,2,,,Tesla Destination,https://www.tesla.com/destination-charging,200-8,35.959448,-86.800246,2022-10-06,115588,2023-01-18 15:15:20 UTC,P,,,2017-07-17,,,,,J1772 TESLA,US,,,,Public,,public,,,HOTEL,,,,,,,Free,,,,,,,,,,,,,,,,,,,false
ELEC,Wildwood Resort & Marina - Tesla Destination,7316 Granville Hwy,,Granville,TN,38564,,931-653-4360  877-798-3752,E,,Public,,,,,,,2,,,Tesla Destination,https://www.tesla.com/destination-charging,200-9,36.2712,-85.7953,2022-10-06,115589,2023-01-18 15:15:20 UTC,P,,,2018-10-15,,,,,TESLA,US,,,,Public,,public,,,HOTEL,,,,,,,Free,,,,,,,,,,,,,,,,,,,false
ELEC,General Morgan Inn - Tesla Destination,111 N Main St,,Greeneville,TN,37743,,423-787-1000  877-798-3752,E,,Public,,,,,,,3,,,Tesla Destination,https://www.tesla.com/destination-charging,200-9,36.163621,-82.83095900000001,2022-10-06,115590,2023-01-18 15:15:20 UTC,P,,,2017-02-16,,,,,TESLA,US,,,,Public,,public,,,INN,,,,,,,Free,,,,,,,,,,,,,,,,,,,false
ELEC,Holiday Inn Express & Suites Chattanooga-Hixson - Tesla Destination,4820 Hixson Pike,,Hixson,TN,37343,,423-877-6464  877-798-3752,E,,Public,,,,,,,6,,,Tesla Destination,https://www.tesla.com/destination-charging,200-9,35.127276,-85.246608,2022-10-06,115591,2023-01-18 15:15:20 UTC,P,,,2018-05-02,,,,,J1772 TESLA,US,,,,Public,,public,,,HOTEL,,,,,,,Free,,,,,,,,,,,,,,,,,,,false
ELEC,Hilton Garden Inn Jackson - Tesla Destination,1324 Vann Dr,,Jackson,TN,38305,,731-868-3500  877-798-3752,E,,Public,,,,,,,3,,,Tesla Destination,https://www.tesla.com/destination-charging,200-9,35.66221,-88.861765,2022-10-06,115592,2023-01-18 15:15:20 UTC,P,,,2018-06-19,,,,,J1772 TESLA,US,,,,Public,,public,,,HOTEL,,,,,,,Free,,,,,,,,,,,,,,,,,,,false
ELEC,Rush Street Neighborhood Grill - Tesla Destination,1229 E Stone Dr,,Kingsport,TN,37660,,423-247-3184  877-798-3752,E,,Public,,,,,,,2,,,Tesla Destination,https://www.tesla.com/destination-charging,200-9,36.549767,-82.525923,2022-10-06,115593,2023-01-18 15:15:20 UTC,P,,,2017-05-15,,,,,J1772 TESLA,US,,,,Public,,public,,,RESTAURANT,,,,,,,Free,,,,,,,,,,,,,,,,,,,false
ELEC,MeadowView Conference Resort & Convention Center - Tesla Destination,1901 Meadowview Pkwy,,Kingsport,TN,37664,,423-578-6600  877-798-3752,E,,Public,,,,,,,3,,,Tesla Destination,https://www.tesla.com/destination-charging,200-9,36.506546,-82.568279,2022-10-06,115594,2023-01-18 15:15:20 UTC,P,,,2017-07-05,,,,,J1772 TESLA,US,,,,Public,,public,,,HOTEL,,,,,,,Free,,,,,,,,,,,,,,,,,,,false
ELEC,The Tennessean Hotel - Tesla Destination,531 Henley St,,Knoxville,TN,37902,,865-232-1800  877-798-3752,E,,Public,,,,,,,2,,,Tesla Destination,https://www.tesla.com/destination-charging,200-9,35.9623888,-83.923282,2022-10-06,115595,2023-01-18 15:15:20 UTC,P,,,2017-09-05,,,,,TESLA,US,,,,Public,,public,,,HOTEL,,,,,,,Free,,,,,,,,,,,,,,,,,,,false
ELEC,Embassy Suites Knoxville West - Tesla Destination,9621 Parkside Dr,,Knoxville,TN,37922,,865-246-2309  877-798-3752,E,,Public,,,,,,,10,,,Tesla Destination,https://www.tesla.com/destination-charging,200-9,35.9131838,-84.1068105,2022-10-06,115596,2023-01-18 15:15:20 UTC,P,,,2017-11-22,,,,,J1772 TESLA,US,,,,Public,,public,,,HOTEL,,,,,,,Free,,,,,,,,,,,,,,,,,,,false
ELEC,Mountain Motorsports - Tesla Destination,3422 Adventure Ln,,Kodak,TN,37764,,865-932-7433  877-798-3752,E,,Public,,,,,,,1,,,Tesla Destination,https://www.tesla.com/destination-charging,200-9,35.98178,-83.613345,2022-10-06,115597,2023-01-18 15:15:20 UTC,P,,,2014-12-30,,,,,TESLA,US,,,,Public,,public,,,OTHER_ENTERTAINMENT,,,,,,,Free,,,,,,,,,,,,,,,,,,,false
ELEC,The Peabody Hotel - Tesla Destination,149 Union Ave,,Memphis,TN,38103,,901-529-4000  877-798-3752,E,,Public,,,,,,,2,,,Tesla Destination,https://www.tesla.com/destination-charging,200-8,35.142409,-90.051998,2022-10-06,115598,2023-01-18 15:15:20 UTC,P,,,2016-07-15,,,,,J1772 TESLA,US,,,,Public,,public,,,HOTEL,,,,,,,Free,,,,,,,,,,,,,,,,,,,false
ELEC,La Quinta Inn & Suites Memphis Wolfchase - Tesla Destination,2839 New Brunswick Rd,,Memphis,TN,38133,,901-377-2772  877-798-3752,E,,Public,,,,,,,3,,,Tesla Destination,https://www.tesla.com/destination-charging,200-9,35.203262,-89.778509,2022-10-06,115599,2023-01-18 15:15:20 UTC,P,,,2017-07-07,,,,,J1772 TESLA,US,,,,Public,,public,,,HOTEL,,,,,,,Free,,,,,,,,,,,,,,,,,,,false
ELEC,Hyatt Place Memphis Wolfchase Galleria - Tesla Destination,7905 Giacosa Pl,,Memphis,TN,38133,,901-371-0010  877-798-3752,E,,Public,,,,,,,2,,,Tesla Destination,https://www.tesla.com/destination-charging,200-8,35.196114,-89.797391,2022-10-06,115600,2023-01-18 15:15:20 UTC,P,,,2017-03-01,,,,,J1772 TESLA,US,,,,Public,,public,,,HOTEL,,,,,,,Free,,,,,,,,,,,,,,,,,,,false
ELEC,Best Western Galleria Inn & Suites - Tesla Destination,8635 US-64,,Memphis,TN,38133,,901-372-0000  877-798-3752,E,,Public,,,,,,,4,,,Tesla Destination,https://www.tesla.com/destination-charging,200-8,35.20374,-89.775131,2022-10-06,115601,2023-01-18 15:15:20 UTC,P,,,2017-08-30,,,,,J1772 TESLA,US,,,,Public,,public,,,HOTEL,,,,,,,Free,,,,,,,,,,,,,,,,,,,false
ELEC,Hilton Garden Inn Murfreesboro - Tesla Destination,1335 Conference Center Boulevard,,Murfreesboro,TN,37129,,615-225-2345  877-798-3752,E,,Public,,,,,,,12,,,Tesla Destination,https://www.tesla.com/destination-charging,200-8,35.8644112,-86.4508482,2022-10-06,115602,2023-01-18 15:15:20 UTC,P,,,2017-10-19,,,,,J1772 TESLA,US,,,,Public,,public,,,HOTEL,,,,,,,Free,,,,,,,,,,,,,,,,,,,false
ELEC,Hilton Nashville Downtown - Tesla Destination,121 4th Ave S,,Nashville,TN,37201,,615-620-1000  877-798-3752,E,,Public,,,,,,,4,,,Tesla Destination,https://www.tesla.com/destination-charging,200-8,36.159949,-86.777271,2022-10-06,115603,2023-01-18 15:15:20 UTC,P,,,2017-04-17,,,,,J1772 TESLA,US,,,,Public,,public,,,HOTEL,,,,,,,Free,,,,,,,,,,,,,,,,,,,false
ELEC,Urban Cookhouse Nashville - Tesla Destination,1907 Broadway,,Nashville,TN,37203,,615-953-6449  877-798-3752,E,,Public,,,,,,,1,,,Tesla Destination,https://www.tesla.com/destination-charging,200-9,36.150445,-86.79679,2022-10-06,115605,2023-01-18 15:15:20 UTC,P,,,2017-09-26,,,,,TESLA,US,,,,Public,,public,,,RESTAURANT,,,,,,,Free,,,,,,,,,,,,,,,,,,,false
ELEC,The Hermitage Hotel - Tesla Destination,231 6th Ave N,,Nashville,TN,37219,,615-244-3121  877-798-3752,E,,Public,,,,,,,2,,,Tesla Destination,https://www.tesla.com/destination-charging,200-9,36.163688,-86.782274,2022-10-06,115606,2023-01-18 15:15:20 UTC,P,,,2016-03-21,,,,,J1772 TESLA,US,,,,Public,,public,,,HOTEL,,,,,,,Free,,,,,,,,,,,,,,,,,,,false
ELEC,Gaylord Opryland Resort & Convention Center - Tesla Destination,2800 Opryland Dr,,Nashville,TN,37214,,615-889-1000  877-798-3752,E,,Public,,,,,,,3,,,Tesla Destination,https://www.tesla.com/destination-charging,200-9,36.212449,-86.696838,2022-10-06,115608,2023-01-18 15:15:20 UTC,P,,,2016-07-15,,,,,J1772 TESLA,US,,,,Public,,public,,,HOTEL,,,,,,,Free,,,,,,,,,,,,,,,,,,,false
ELEC,Thompson Nashville - Tesla Destination,401 11th Ave S,,Nashville,TN,37203,,615-262-6000  877-798-3752,E,,Public,,,,,,,4,,,Tesla Destination,https://www.tesla.com/destination-charging,200-8,36.152491,-86.784039,2022-10-06,115609,2023-01-18 15:15:20 UTC,P,,,2018-07-12,,,,,TESLA,US,,,,Public,,public,,,HOTEL,,,,,,,Free,,,,,,,,,,,,,,,,,,,false
ELEC,Hotel Preston - Tesla Destination,733 Briley Pkwy,,Nashville,TN,37217,,615-361-5900  877-798-3752,E,,Public,,,,,,,8,,,Tesla Destination,https://www.tesla.com/destination-charging,200-9,36.1420023,-86.7013478,2022-10-06,115610,2023-01-18 15:15:20 UTC,P,,,2018-02-09,,,,,J1772 TESLA,US,,,,Public,,public,,,HOTEL,,,,,,,Free,,,,,,,,,,,,,,,,,,,false
ELEC,Fairfield Inn & Suites Nashville Downtown/The Gulch - Tesla Destination,901 Division St,,Nashville,TN,37203,,615-690-1740  877-798-3752,E,,Public,,,,,,,6,,,Tesla Destination,https://www.tesla.com/destination-charging,200-9,36.15033,-86.781542,2022-10-06,115611,2023-01-18 15:15:20 UTC,P,,,2017-06-08,,,,,J1772 TESLA,US,,,,Public,,public,,,HOTEL,,,,,,,Free,,,,,,,,,,,,,,,,,,,false
ELEC,Christopher Place Resort - Tesla Destination,1500 Pinnacles Way,,Newport,TN,37821,,423-623-6555  877-798-3752,E,,Public,,,,,,,2,,,Tesla Destination,https://www.tesla.com/destination-charging,200-9,35.920625,-83.252367,2022-10-06,115612,2023-01-18 15:15:20 UTC,P,,,2015-06-15,,,,,J1772 TESLA,US,,,,Public,,public,,,HOTEL,,,,,,,Free,,,,,,,,,,,,,,,,,,,false
ELEC,The Inn at Christmas Place - Tesla Destination,119 Christmas Tree Ln,,Pigeon Forge,TN,37863,,888-465-9644  877-798-3752,E,,Public,,,,,,,4,,,Tesla Destination,https://www.tesla.com/destination-charging,200-9,35.809438,-83.576405,2022-10-06,115613,2023-01-18 15:15:20 UTC,P,,,2015-08-31,,,,,J1772 TESLA,US,,,,Public,,public,,,INN,,,,,,,Free,,,,,,,,,,,,,,,,,,,false
ELEC,Margaritaville - Tesla Destination,130 The Island Dr,,Pigeon Forge,TN,37863,,865-210-8530  877-798-3752,E,,Public,,,,,,,4,,,Tesla Destination,https://www.tesla.com/destination-charging,200-8,35.802613,-83.568554,2022-10-06,115614,2023-01-18 15:15:20 UTC,P,,,2016-04-14,,,,,J1772 TESLA,US,,,,Public,,public,,,HOTEL,,,,,,,Free,,,,,,,,,,,,,,,,,,,false
ELEC,Titanic Pigeon Forge - Tesla Destination,2134 Parkway,,Pigeon Forge,TN,37863,,800-381-7670  877-798-3752,E,,Public,,,,,,,2,,,Tesla Destination,https://www.tesla.com/destination-charging,200-8,35.821495,-83.578399,2022-10-06,115615,2023-01-18 15:15:20 UTC,P,,,2016-04-14,,,,,TESLA,US,,,,Public,,public,,,OTHER_ENTERTAINMENT,,,,,,,Free,,,,,,,,,,,,,,,,,,,false
ELEC,"Berry Springs Lodge, a Select Registry Property - Tesla Destination",2149 Seaton Springs Rd,,Sevierville,TN,37862,,865-908-7935  877-798-3752,E,,Public,,,,,,,2,,,Tesla Destination,https://www.tesla.com/destination-charging,200-9,35.81792,-83.501509,2022-10-06,115616,2023-01-18 15:15:20 UTC,P,,,2015-07-08,,,,,J1772 TESLA,US,,,,Public,,public,,,HOTEL,,,,,,,Free,,,,,,,,,,,,,,,,,,,false
ELEC,TownePlace Suites by Marriott Nashville Smyrna - Tesla Destination,990 Colonnade Dr,,Smyrna,TN,37167,,615-459-2017  877-798-3752,E,,Public,,,,,,,3,,,Tesla Destination,https://www.tesla.com/destination-charging,GPS,35.975191,-86.577625,2022-10-06,115617,2023-01-18 15:15:20 UTC,P,,,2017-07-17,,,,,J1772 TESLA,US,,,,Public,,public,,,HOTEL,,,,,,,Free,,,,,,,,,,,,,,,,,,,false
ELEC,Dancing Bear Lodge & Appalachian Bistro - Tesla Destination,7140 E Lamar Alexander Pkwy,,Townsend,TN,37882,,800-369-0111  877-798-3752,E,,Public,,,,,,,1,,,Tesla Destination,https://www.tesla.com/destination-charging,200-8,35.678761,-83.782354,2022-10-06,115618,2023-01-18 15:15:20 UTC,P,,,2017-03-22,,,,,TESLA,US,,,,Public,,public,,,HOTEL,,,,,,,Free,,,,,,,,,,,,,,,,,,,false
ELEC,Hampton Inn Tullahoma - Tesla Destination,1922 N Jackson St,,Tullahoma,TN,37388,,931-461-5222  877-798-3752,E,,Public,,,,,,,3,,,Tesla Destination,https://www.tesla.com/destination-charging,200-8,35.385701,-86.231766,2022-10-06,115619,2023-01-18 15:15:20 UTC,P,,,2017-04-26,,,,,J1772 TESLA,US,,,,Public,,public,,,HOTEL,,,,,,,Free,,,,,,,,,,,,,,,,,,,false
ELEC,Blackberry Farm - Tesla Destination,1471 W Millers Cove Rd,,Walland,TN,37886,,865-984-8166  877-798-3752,E,,Public,,,,,,,2,,,Tesla Destination,https://www.tesla.com/destination-charging,200-9,35.687809,-83.86247,2022-10-06,115620,2023-01-18 15:15:20 UTC,P,,,2015-06-04,,,,,TESLA,US,,,,Public,,public,,,HOTEL,,,,,,,Free,,,,,,,,,,,,,,,,,,,false
ELEC,Westmoreland Family Clinic - Tesla Destination,100-B Mallard Sunrise Dr,,Westmoreland,TN,37186,,615-644-3000  877-798-3752,E,,Public,,,,,,,1,,,Tesla Destination,https://www.tesla.com/destination-charging,200-9,36.554146,-86.237929,2022-10-06,115621,2023-01-18 15:15:20 UTC,P,,,2014-11-26,,,,,TESLA,US,,,,Public,,public,,,OFFICE_BLDG,,,,,,,Free,,,,,,,,,,,,,,,,,,,false
ELEC,Best Western Winchester - Tesla Destination,1602 Dinah Shore Blvd,,Winchester,TN,37398,,931-967-9444  877-798-3752,E,,Public,,,,,,,6,,,Tesla Destination,https://www.tesla.com/destination-charging,200-9,35.200297,-86.0943006,2022-10-06,115622,2023-01-18 15:15:20 UTC,P,,,2018-05-10,,,,,J1772 TESLA,US,,,,Public,,public,,,HOTEL,,,,,,,Free,,,,,,,,,,,,,,,,,,,false
ELEC,METRO NASHVILLE 2,610 Murfreesboro Pike,,Nashville,TN,37210,,888-758-4389,E,,Public,24 hours daily,,,,,,2,,,ChargePoint Network,http://www.chargepoint.com/,GPS,36.142179,-86.739249,2023-10-23,116720,2023-10-23 00:24:31 UTC,,,,2019-01-04,,,,,J1772,US,,,,Public,,public,,,,,,,,,,,,,,,,,,,,,,,,,,,,,false
ELEC,METRO NASHVILLE WEST PRECINCT,5500 Charlotte Pike,,Nashville,TN,37209,,888-758-4389,E,,Public,24 hours daily,,,,,,1,,,ChargePoint Network,http://www.chargepoint.com/,GPS,36.151278,-86.855062,2023-10-23,117616,2023-10-23 00:24:58 UTC,,,,2019-02-02,,,,,J1772,US,,,,Public,,public,,,,,,,,,,,,,,,,,,,,,,,,,,,,,false
ELEC,2473 SHOP 01,10117 Parkside Dr,,Knoxville,TN,37922,,888-758-4389,E,,Public,24 hours daily,,,,,,1,,,ChargePoint Network,http://www.chargepoint.com/,GPS,35.909186,-84.122148,2023-10-23,117698,2023-10-23 00:25:00 UTC,,,,2019-02-06,,,,,J1772,US,,,,Public,,public,,,,,,,,,,,,,,,,,,,,,,,,,,,,,false
ELEC,METRO NASHVILLE SE LIBRARY 2,5264 Hickory Hollow Pl,,Nashville,TN,37013,,888-758-4389,E,,Public,24 hours daily,,,,,,1,,,ChargePoint Network,http://www.chargepoint.com/,GPS,36.052522,-86.656983,2023-10-23,117699,2023-10-23 00:25:00 UTC,,,,2019-02-06,,,,,J1772,US,,,,Public,,public,,,,,,,,,,,,,,,,,,,,,,,,,,,,,false
ELEC,METRO NASHVILLE HCH GARAGE 2,101 James Robertson Pkwy,,Nashville,TN,37201,,888-758-4389,E,,Public,24 hours daily,,,,,,2,,,ChargePoint Network,http://www.chargepoint.com/,GPS,36.167275,-86.777527,2023-10-23,117772,2023-10-23 00:25:37 UTC,,,,2019-02-09,,,,,J1772,US,,,,Public,,public,,,,,,,,,,,,,,,,,,,,,,,,,,,,,false
ELEC,Paris Surgical Specialists,235 Tyson Ave,,Paris,TN,38242,,888-998-2546,E,,Public,24 hours daily,,,,,,3,,,Blink Network,http://www.blinkcharging.com/,GPS,36.298253,-88.310053,2023-10-23,118930,2023-10-23 00:03:43 UTC,,,,2019-03-01,,,,,J1772,US,,,,Public,,public,,,,,,,,,,Free,,,,,,,,,,,,,,,,,,,false
ELEC,METRO NASHVILLE FIRE STATION 33,2501 Forest View Dr,,Nashville,TN,37013,,888-758-4389,E,,Public,24 hours daily,,,,,,1,,,ChargePoint Network,http://www.chargepoint.com/,GPS,36.067571,-86.630697,2023-10-23,121675,2023-10-23 00:25:07 UTC,,,,2019-04-24,,,,,J1772,US,,,,Public,,public,,,,,,,,,,,,,,,,,,,,,,,,,,,,,false
ELEC,Walmart 673 Clarksville,3050 Wilma Rudolph Blvd,,Clarksville,TN,37040,,833-632-2778,E,,Public,24 hours daily,,,,,,,4,,Electrify America,https://www.electrifyamerica.com/,GPS,36.59519,-87.2897,2023-10-23,121800,2023-10-23 01:14:08 UTC,,,,2018-08-30,,,,,CHADEMO J1772COMBO,US,,,,Public,,public,,,,,,,,,,,,,,,,,,,,,,,,,,,,,false
ELEC,"Sam's Club 4930 (Cookeville, TN)",1177 Sams Street,,Cookeville,TN,38506,,833-632-2778,E,,Public,24 hours daily,,,,,,,4,,Electrify America,https://www.electrifyamerica.com/,GPS,36.13346,-85.50762,2023-10-23,121803,2023-10-23 01:14:15 UTC,,,,2018-10-26,,,,,CHADEMO J1772COMBO,US,,,,Public,,public,,,,,,,,,,,,,,,,,,,,,,,,,,,,,false
ELEC,"Walmart 2065 - Knoxville, TN",8445 Walbrook Drive,,Knoxville,TN,37923,,833-632-2778,E,,Public,24 hours daily,,,,,,,4,,Electrify America,https://www.electrifyamerica.com/,GPS,35.92626,-84.06107,2023-10-23,121808,2023-10-23 01:12:53 UTC,,,,2019-04-26,,,,,CHADEMO J1772COMBO,US,,,,Public,,public,,,,,,,,,,,,,,,,,,,,,,,,,,,,,false
ELEC,"Walmart 335 - Jackson, TN",2196 Emporium Drive,,Jackson,TN,38305,,833-632-2778,E,,Public,24 hours daily,,,,,,,4,,Electrify America,https://www.electrifyamerica.com/,GPS,35.66807,-88.85308,2023-10-23,121811,2023-10-23 01:13:03 UTC,,,,2019-04-26,,,,,CHADEMO J1772COMBO,US,,,,Public,,public,,,,,,,,,,,,,,,,,,,,,,,,,,,,,false
ELEC,Commons at Wolf Creek,2755 North Germantown Parkway,,Memphis,TN,38133,,833-632-2778,E,,Public,24 hours daily,,,,,,,4,,Electrify America,https://www.electrifyamerica.com/,GPS,35.20177,-89.79382,2023-10-23,121816,2023-10-23 01:12:55 UTC,,,,2018-07-20,,,,,CHADEMO J1772COMBO,US,,,,Public,,public,,,,,,,,,,,,,,,,,,,,,,,,,,,,,false
ELEC,Walmart 3835 Ooltewah,5588 Little Debbie Parkway,,Ooltewah,TN,37363,,833-632-2778,E,,Public,24 hours daily,,,,,,,8,,Electrify America,https://www.electrifyamerica.com/,GPS,35.0825,-85.06368,2023-10-23,121818,2023-10-23 01:13:38 UTC,,,,2018-08-23,,,,,CHADEMO J1772COMBO,US,,,,Public,,public,,,,,,,,,,,,,,,,,,,,,,,,,,,,,false
ELEC,La Quinta Inn & Suites Cookeville - Tesla Destination,1131 S Jefferson Ave,,Cookeville,TN,38506,,931-520-3800  877-798-3752,E,,Public,,,,,,,3,,,Tesla Destination,https://www.tesla.com/destination-charging,200-9,36.13295,-85.50475,2022-10-06,122547,2023-01-18 15:15:20 UTC,P,,,2019-01-31,,,,,J1772 TESLA,US,,,,Public,,public,,,,,,,,,,Free,,,,,,,,,,,,,,,,,,,false
ELEC,Fairfield Inn & Suites by Marriott Nashville - Tesla Destination,100 French Landing Dr,,Nashville,TN,37228,,615-432-4677  877-798-3752,E,,Public,,,,,,,3,,,Tesla Destination,https://www.tesla.com/destination-charging,200-9,36.188956,-86.797155,2022-10-06,122548,2023-01-18 15:15:20 UTC,P,,,2019-01-29,,,,,J1772 TESLA,US,,,,Public,,public,,,,,,,,,,Free,,,,,,,,,,,,,,,,,,,false
ELEC,Sustainable Future Center,201 Ogle Ave,,Knoxville,TN,37920,,865-603-0520  865-294-0154,E,,Public - Call ahead,Variable business hours; available to building guests,,,,,,1,,,Non-Networked,,200-9,35.933369,-83.915176,2023-01-10,122755,2023-02-14 15:54:11 UTC,P,,,2015-03-01,,,,,J1772,US,,,,Public - Appeler à l'avance,,public,CALL,,OFFICE_BLDG,,,,,,,,,,,,,,,,,true,,,,,,,,LD,false
ELEC,Tru Hotel - Pigeon Forge,2815 Teaster Ln,,Pigeon Forge,TN,37863,,866-816-7584,E,,Public,,,,,,,2,,,EV Connect,http://evconnect.com/,GPS,35.801853,-83.563944,2023-10-23,123152,2023-10-23 01:16:29 UTC,,,,2019-04-01,,,,,J1772,US,,,,Public,,public,,,,,,,,,,,,,,,,,,,,,,,,,,,,,false
ELEC,Serra Chevrolet,7850 US Highway 64,,Bartlett,TN,38133,,901-382-5644,E,,Public - Call ahead,Dealership business hours,,,,,,5,,,Non-Networked,,200-9,35.205106,-89.801697,2020-09-03,123452,2022-12-29 16:42:18 UTC,P,,,2019-03-01,,,,,J1772,US,,,,Public - Appeler à l'avance,,public,CALL,,CAR_DEALER,,,,,,,Free,,,,,,,,,,false,,,,,,,,,false
E85,Thorntons #607,13010 Old Hickory Blvd,,Antioch,TN,37013,,615-641-2322,E,,Public,24 hours daily,A Cash D Debit M V,,,,,,,,,,200-9,36.016521,-86.621402,2023-09-14,131644,2023-09-14 14:01:49 UTC,P,,,2019-07-15,,,,false,,US,,,,Public,,public,,,CONVENIENCE_STORE,,,,,,,,,,,,,,,,,false,,,,,,,,MD,
ELEC,Hands On!,1212 Suncrest Dr,,Gray,TN,37615,,423-434-4263,E,,Public,24 hours daily,,,,,,2,,,Non-Networked,,200-9,36.386632,-82.498535,2022-10-11,138583,2023-02-14 15:54:11 UTC,T,,,2019-07-30,,,,,J1772,US,,,,Public,,public,,,MUSEUM,,,,,,,Free,,,,,,,,,,false,,,,,,,,LD,false
